var aloj_local=[{
"type": "FeatureCollection",
"name": "aloj_local",
"crs": { "type": "name", "properties": { "name": "urn:ogc:def:crs:OGC:1.3:CRS84" } },
"features": [
{ "type": "Feature", "properties": { "Denominaca": "WHITE ROCKS BEACH HOUSE" }, "geometry": { "type": "Point", "coordinates": [ -8.720902934983602, 41.253721838666777 ] } },
{ "type": "Feature", "properties": { "Denominaca": "HOUSE NEXT TO THE BEACH AND METRO STATION TO PORTO" }, "geometry": { "type": "Point", "coordinates": [ -8.692394133742342, 41.183477603032337 ] } },
{ "type": "Feature", "properties": { "Denominaca": "T2+1 Maria Feleciana 165 4T" }, "geometry": { "type": "Point", "coordinates": [ -8.598114382030053, 41.186959098374253 ] } },
{ "type": "Feature", "properties": { "Denominaca": "Maria Sardinha" }, "geometry": { "type": "Point", "coordinates": [ -8.691864177398383, 41.183135914270899 ] } },
{ "type": "Feature", "properties": { "Denominaca": "SÃO SALVADOR" }, "geometry": { "type": "Point", "coordinates": [ -8.687969203698707, 41.173709268344354 ] } },
{ "type": "Feature", "properties": { "Denominaca": "Central Matosinhos Apartment - by UniqueHosts" }, "geometry": { "type": "Point", "coordinates": [ -8.664528118629724, 41.187212454832114 ] } },
{ "type": "Feature", "properties": { "Denominaca": "SOL E MAR APARTAMENTO" }, "geometry": { "type": "Point", "coordinates": [ -8.688316326928652, 41.174966036389748 ] } },
{ "type": "Feature", "properties": { "Denominaca": "MyTrip Porto" }, "geometry": { "type": "Point", "coordinates": [ -8.688511621411086, 41.180631219797625 ] } },
{ "type": "Feature", "properties": { "Denominaca": "Douro Seasons" }, "geometry": { "type": "Point", "coordinates": [ -8.700569974486561, 41.188499998459044 ] } },
{ "type": "Feature", "properties": { "Denominaca": "Simetria Casual" }, "geometry": { "type": "Point", "coordinates": [ -8.692039642351684, 41.179958692153157 ] } },
{ "type": "Feature", "properties": { "Denominaca": "Edificio Vencedor, 3ºandar. Dtº" }, "geometry": { "type": "Point", "coordinates": [ -8.693388577505369, 41.186163898310852 ] } },
{ "type": "Feature", "properties": { "Denominaca": "Pedra Verde Apartment" }, "geometry": { "type": "Point", "coordinates": [ -8.619159985743304, 41.195680020799173 ] } },
{ "type": "Feature", "properties": { "Denominaca": "Republica R" }, "geometry": { "type": "Point", "coordinates": [ -8.686028419824819, 41.180097520885568 ] } },
{ "type": "Feature", "properties": { "Denominaca": "SEA FREEZE CALLING" }, "geometry": { "type": "Point", "coordinates": [ -8.690507545514054, 41.181096804446753 ] } },
{ "type": "Feature", "properties": { "Denominaca": "Oporto Beach Appartment" }, "geometry": { "type": "Point", "coordinates": [ -8.690223542365635, 41.178747159521649 ] } },
{ "type": "Feature", "properties": { "Denominaca": "Bonnita Home" }, "geometry": { "type": "Point", "coordinates": [ -8.696586563284923, 41.197354964130781 ] } },
{ "type": "Feature", "properties": { "Denominaca": "MATOSINHOS SUL FLAT" }, "geometry": { "type": "Point", "coordinates": [ -8.691549236340949, 41.180998011029487 ] } },
{ "type": "Feature", "properties": { "Denominaca": "Simple Living @ Senhora da Hora" }, "geometry": { "type": "Point", "coordinates": [ -8.651861860841834, 41.19155705196421 ] } },
{ "type": "Feature", "properties": { "Denominaca": "Diana Maria Pereira Bessa Lage" }, "geometry": { "type": "Point", "coordinates": [ -8.687983681740153, 41.173700112351014 ] } },
{ "type": "Feature", "properties": { "Denominaca": "Cozy Spacious Near the beach" }, "geometry": { "type": "Point", "coordinates": [ -8.678694046186338, 41.179399322549926 ] } },
{ "type": "Feature", "properties": { "Denominaca": "OPORTO SILK FLAT" }, "geometry": { "type": "Point", "coordinates": [ -8.653969360684009, 41.182587976371273 ] } },
{ "type": "Feature", "properties": { "Denominaca": "Porto Leça - Studios e Apts" }, "geometry": { "type": "Point", "coordinates": [ -8.702278235128254, 41.188854861890242 ] } },
{ "type": "Feature", "properties": { "Denominaca": "Casa da Ajuda" }, "geometry": { "type": "Point", "coordinates": [ -8.694370097747383, 41.21288028391281 ] } },
{ "type": "Feature", "properties": { "Denominaca": "Sularium Apartment" }, "geometry": { "type": "Point", "coordinates": [ -8.724062982260259, 41.239798357069034 ] } },
{ "type": "Feature", "properties": { "Denominaca": "Alojamento Boa Vista" }, "geometry": { "type": "Point", "coordinates": [ -8.69103323380077, 41.193979878781121 ] } },
{ "type": "Feature", "properties": { "Denominaca": "MATOSINHOS SEA VIEW" }, "geometry": { "type": "Point", "coordinates": [ -8.69105600014546, 41.177877000940448 ] } },
{ "type": "Feature", "properties": { "Denominaca": "VISTA PARA O FAROL" }, "geometry": { "type": "Point", "coordinates": [ -8.710834981521241, 41.199955438802832 ] } },
{ "type": "Feature", "properties": { "Denominaca": "SUNSET HOME" }, "geometry": { "type": "Point", "coordinates": [ -8.689980870677893, 41.184463211516309 ] } },
{ "type": "Feature", "properties": { "Denominaca": "The Green Waves" }, "geometry": { "type": "Point", "coordinates": [ -8.6856620682337, 41.180818426988758 ] } },
{ "type": "Feature", "properties": { "Denominaca": "Apartamento Fonte Luz" }, "geometry": { "type": "Point", "coordinates": [ -8.681640524874732, 41.179304566886792 ] } },
{ "type": "Feature", "properties": { "Denominaca": "Nice Studio Circunvalação - by UniqueHosts" }, "geometry": { "type": "Point", "coordinates": [ -8.636392702848331, 41.185030278558621 ] } },
{ "type": "Feature", "properties": { "Denominaca": "Porto Leça - Studios e Apts" }, "geometry": { "type": "Point", "coordinates": [ -8.702325456705767, 41.188874075054173 ] } },
{ "type": "Feature", "properties": { "Denominaca": "Great Apartment Exponor" }, "geometry": { "type": "Point", "coordinates": [ -8.691037512231398, 41.193976104172336 ] } },
{ "type": "Feature", "properties": { "Denominaca": "PACOS HOUSE" }, "geometry": { "type": "Point", "coordinates": [ -8.720680004406066, 41.245369996203344 ] } },
{ "type": "Feature", "properties": { "Denominaca": "Casa José" }, "geometry": { "type": "Point", "coordinates": [ -8.615370024004934, 41.185479999436915 ] } },
{ "type": "Feature", "properties": { "Denominaca": "Cozy Flat With Terrace" }, "geometry": { "type": "Point", "coordinates": [ -8.699874552921354, 41.188194671421172 ] } },
{ "type": "Feature", "properties": { "Denominaca": "Feel Porto Matosinhos Ocean Flat II" }, "geometry": { "type": "Point", "coordinates": [ -8.692322226724004, 41.180905496126158 ] } },
{ "type": "Feature", "properties": { "Denominaca": "Beach Surf Matosinhos" }, "geometry": { "type": "Point", "coordinates": [ -8.690121216171979, 41.178821590531285 ] } },
{ "type": "Feature", "properties": { "Denominaca": "Charmy Eng. António Costa Reis Apartment" }, "geometry": { "type": "Point", "coordinates": [ -8.632458785813517, 41.185119845106705 ] } },
{ "type": "Feature", "properties": { "Denominaca": "FISHTAIL SEA HOUSE" }, "geometry": { "type": "Point", "coordinates": [ -8.691668969231049, 41.181708773226568 ] } },
{ "type": "Feature", "properties": { "Denominaca": "Ricardo Lopes" }, "geometry": { "type": "Point", "coordinates": [ -8.6882642263406, 41.173743229138189 ] } },
{ "type": "Feature", "properties": { "Denominaca": "AMELIA HOUSE" }, "geometry": { "type": "Point", "coordinates": [ -8.687149961260316, 41.173584988943503 ] } },
{ "type": "Feature", "properties": { "Denominaca": "T0 Rua Dr. Afonso Cordeiro 194, 1º Andar, Fração I" }, "geometry": { "type": "Point", "coordinates": [ -8.685810029670067, 41.18055001482044 ] } },
{ "type": "Feature", "properties": { "Denominaca": "Casa da Guidinha" }, "geometry": { "type": "Point", "coordinates": [ -8.629569430867674, 41.193017397157682 ] } },
{ "type": "Feature", "properties": { "Denominaca": "António Carlos Kendall de Bessa Ribas" }, "geometry": { "type": "Point", "coordinates": [ -8.68647375211809, 41.179879011557894 ] } },
{ "type": "Feature", "properties": { "Denominaca": "GENIUS   LOCI" }, "geometry": { "type": "Point", "coordinates": [ -8.685567622493648, 41.179226868117745 ] } },
{ "type": "Feature", "properties": { "Denominaca": "Fabulous Matosinhos Apartment - by UniqueHosts" }, "geometry": { "type": "Point", "coordinates": [ -8.665135104840667, 41.181706196335242 ] } },
{ "type": "Feature", "properties": { "Denominaca": "MATOSINHOS BEACH" }, "geometry": { "type": "Point", "coordinates": [ -8.691009423507431, 41.180550611397564 ] } },
{ "type": "Feature", "properties": { "Denominaca": "OCEAN MATOSINHOS  APARTMENT" }, "geometry": { "type": "Point", "coordinates": [ -8.687580036572118, 41.181030004693618 ] } },
{ "type": "Feature", "properties": { "Denominaca": "AL atlantico" }, "geometry": { "type": "Point", "coordinates": [ -8.678370952385894, 41.178562585572202 ] } },
{ "type": "Feature", "properties": { "Denominaca": "Lavra Residence" }, "geometry": { "type": "Point", "coordinates": [ -8.707014589787519, 41.254939516274931 ] } },
{ "type": "Feature", "properties": { "Denominaca": "Abrigo da Cotovia Lda" }, "geometry": { "type": "Point", "coordinates": [ -8.610127446997893, 41.19191022986741 ] } },
{ "type": "Feature", "properties": { "Denominaca": "Sea Breaking" }, "geometry": { "type": "Point", "coordinates": [ -8.692096542895603, 41.180152997934336 ] } },
{ "type": "Feature", "properties": { "Denominaca": "Ocean Breeze Matosinhos/OBM" }, "geometry": { "type": "Point", "coordinates": [ -8.683077333953378, 41.178764823453015 ] } },
{ "type": "Feature", "properties": { "Denominaca": "CASA MANUEL" }, "geometry": { "type": "Point", "coordinates": [ -8.613030499787646, 41.186004001339896 ] } },
{ "type": "Feature", "properties": { "Denominaca": "LEÇA ROOM" }, "geometry": { "type": "Point", "coordinates": [ -8.694955236303125, 41.197689158019749 ] } },
{ "type": "Feature", "properties": { "Denominaca": "CONFORTABLE & CENTRAL APARTMENT" }, "geometry": { "type": "Point", "coordinates": [ -8.652878996035577, 41.1911293212966 ] } },
{ "type": "Feature", "properties": { "Denominaca": "OPORTO SARDINHA STUDIO" }, "geometry": { "type": "Point", "coordinates": [ -8.689550856200032, 41.182652221927235 ] } },
{ "type": "Feature", "properties": { "Denominaca": "Apartamento Solarium F" }, "geometry": { "type": "Point", "coordinates": [ -8.724940999516324, 41.241615000684433 ] } },
{ "type": "Feature", "properties": { "Denominaca": "AL" }, "geometry": { "type": "Point", "coordinates": [ -8.691549962198428, 41.186568823942146 ] } },
{ "type": "Feature", "properties": { "Denominaca": "GH-Leça Apartments" }, "geometry": { "type": "Point", "coordinates": [ -8.697650226850744, 41.194189423635315 ] } },
{ "type": "Feature", "properties": { "Denominaca": "Paulo Braga" }, "geometry": { "type": "Point", "coordinates": [ -8.721030032581426, 41.264960012860101 ] } },
{ "type": "Feature", "properties": { "Denominaca": "Near The Beach Apartments I" }, "geometry": { "type": "Point", "coordinates": [ -8.696385222271749, 41.184837396477469 ] } },
{ "type": "Feature", "properties": { "Denominaca": "SURF GUEST HOUSE" }, "geometry": { "type": "Point", "coordinates": [ -8.690216038367225, 41.178101532685965 ] } },
{ "type": "Feature", "properties": { "Denominaca": "ATLANTIC VOGUE HOSTEL" }, "geometry": { "type": "Point", "coordinates": [ -8.648876592943694, 41.188282639123436 ] } },
{ "type": "Feature", "properties": { "Denominaca": "Apartamento Matosinhos 2-BED Seaview" }, "geometry": { "type": "Point", "coordinates": [ -8.691179979366842, 41.177099982016173 ] } },
{ "type": "Feature", "properties": { "Denominaca": "CASA AMARAL" }, "geometry": { "type": "Point", "coordinates": [ -8.708984000154144, 41.251029001256271 ] } },
{ "type": "Feature", "properties": { "Denominaca": "3 bedroom apartment in Matosinhos" }, "geometry": { "type": "Point", "coordinates": [ -8.675693582323575, 41.177872206163485 ] } },
{ "type": "Feature", "properties": { "Denominaca": "Grand &Modern With sea View by Homing" }, "geometry": { "type": "Point", "coordinates": [ -8.706439988922481, 41.194129997095004 ] } },
{ "type": "Feature", "properties": { "Denominaca": "MAKE YOURSELF AT HOME" }, "geometry": { "type": "Point", "coordinates": [ -8.630085500555959, 41.190783000831651 ] } },
{ "type": "Feature", "properties": { "Denominaca": "Maria Surfista" }, "geometry": { "type": "Point", "coordinates": [ -8.691675868102633, 41.18325092466192 ] } },
{ "type": "Feature", "properties": { "Denominaca": "Angeiras Beach House" }, "geometry": { "type": "Point", "coordinates": [ -8.726209964404262, 41.266210005989819 ] } },
{ "type": "Feature", "properties": { "Denominaca": "Lessa Beach Apertment" }, "geometry": { "type": "Point", "coordinates": [ -8.703500036418205, 41.190600000800956 ] } },
{ "type": "Feature", "properties": { "Denominaca": "NearTheSea 3floor by YoursPorto" }, "geometry": { "type": "Point", "coordinates": [ -8.688508122622009, 41.180728463250702 ] } },
{ "type": "Feature", "properties": { "Denominaca": "GARDEN HOUSE" }, "geometry": { "type": "Point", "coordinates": [ -8.658813499674338, 41.193537001267806 ] } },
{ "type": "Feature", "properties": { "Denominaca": "THE BLACK BIRD ESPACE" }, "geometry": { "type": "Point", "coordinates": [ -8.653629798088673, 41.189271130003718 ] } },
{ "type": "Feature", "properties": { "Denominaca": "JOANA PLACE" }, "geometry": { "type": "Point", "coordinates": [ -8.668998000140467, 41.177253927621408 ] } },
{ "type": "Feature", "properties": { "Denominaca": "VILA MARIA" }, "geometry": { "type": "Point", "coordinates": [ -8.718290000390335, 41.261532000508645 ] } },
{ "type": "Feature", "properties": { "Denominaca": "SYLVESTER HOUSE" }, "geometry": { "type": "Point", "coordinates": [ -8.652106727802279, 41.191481703915336 ] } },
{ "type": "Feature", "properties": { "Denominaca": "TERRACE MATOSINHOS HOUSE" }, "geometry": { "type": "Point", "coordinates": [ -8.680288840200538, 41.180331992982396 ] } },
{ "type": "Feature", "properties": { "Denominaca": "PENSÃO CENTRAL" }, "geometry": { "type": "Point", "coordinates": [ -8.690109551581369, 41.182558168270042 ] } },
{ "type": "Feature", "properties": { "Denominaca": "APARTMENT BY THE SEA AND CITY PARK" }, "geometry": { "type": "Point", "coordinates": [ -8.687329506456853, 41.177687533005809 ] } },
{ "type": "Feature", "properties": { "Denominaca": "PENSAO RESIDENCIAL LUSO-BRASILEIRA" }, "geometry": { "type": "Point", "coordinates": [ -8.698919926580468, 41.188522663118533 ] } },
{ "type": "Feature", "properties": { "Denominaca": "No Cantinho da Sofia" }, "geometry": { "type": "Point", "coordinates": [ -8.60549999840223, 41.191990013862217 ] } },
{ "type": "Feature", "properties": { "Denominaca": "Gardens by the sea" }, "geometry": { "type": "Point", "coordinates": [ -8.691149972357188, 41.177600004725946 ] } },
{ "type": "Feature", "properties": { "Denominaca": "BEACH & FISH" }, "geometry": { "type": "Point", "coordinates": [ -8.688777096610609, 41.181278784284004 ] } },
{ "type": "Feature", "properties": { "Denominaca": "Casa dos Azulejos" }, "geometry": { "type": "Point", "coordinates": [ -8.670797517856649, 41.18491956304026 ] } },
{ "type": "Feature", "properties": { "Denominaca": "Marta Santos Silva" }, "geometry": { "type": "Point", "coordinates": [ -8.682630020120021, 41.181040021485323 ] } },
{ "type": "Feature", "properties": { "Denominaca": "City Apartment" }, "geometry": { "type": "Point", "coordinates": [ -8.685929974282041, 41.181509994886298 ] } },
{ "type": "Feature", "properties": { "Denominaca": "APARTAMENTO PORTO MATOSINHOS" }, "geometry": { "type": "Point", "coordinates": [ -8.617242500522339, 41.185410001312484 ] } },
{ "type": "Feature", "properties": { "Denominaca": "Oporto Modern Apartment" }, "geometry": { "type": "Point", "coordinates": [ -8.598323750700111, 41.184865982096916 ] } },
{ "type": "Feature", "properties": { "Denominaca": "JOSE ARMINDO FERREIRA VILACA" }, "geometry": { "type": "Point", "coordinates": [ -8.703509892845748, 41.192080963550445 ] } },
{ "type": "Feature", "properties": { "Denominaca": "LAVRA GUEST HOUSE - BEACH GUEST HOUSE" }, "geometry": { "type": "Point", "coordinates": [ -8.719892000018232, 41.252550000876781 ] } },
{ "type": "Feature", "properties": { "Denominaca": "Matosinhos Beach Appartement" }, "geometry": { "type": "Point", "coordinates": [ -8.69011744135908, 41.17883068241813 ] } },
{ "type": "Feature", "properties": { "Denominaca": "PENSÃO LEÃO DE OURO" }, "geometry": { "type": "Point", "coordinates": [ -8.694560912692623, 41.185414625165336 ] } },
{ "type": "Feature", "properties": { "Denominaca": "Matosinhos Beach Loft" }, "geometry": { "type": "Point", "coordinates": [ -8.696120022154362, 41.184720012188457 ] } },
{ "type": "Feature", "properties": { "Denominaca": "Liiiving in Matosinhos | High Sea Condo" }, "geometry": { "type": "Point", "coordinates": [ -8.691061390445316, 41.177876011367971 ] } },
{ "type": "Feature", "properties": { "Denominaca": "BIG APARTMENT - BEACH - PARK" }, "geometry": { "type": "Point", "coordinates": [ -8.685057160556333, 41.175375502445391 ] } },
{ "type": "Feature", "properties": { "Denominaca": "A CASA VERMELHA" }, "geometry": { "type": "Point", "coordinates": [ -8.635890013342758, 41.215970010020783 ] } },
{ "type": "Feature", "properties": { "Denominaca": "BRIGHT & AIRY" }, "geometry": { "type": "Point", "coordinates": [ -8.691479967837211, 41.180090016099378 ] } },
{ "type": "Feature", "properties": { "Denominaca": "Houses Leça da Palmeira" }, "geometry": { "type": "Point", "coordinates": [ -8.706980391428736, 41.19550038013567 ] } },
{ "type": "Feature", "properties": { "Denominaca": "COZY PANORAMIC APARTMENT NEAR METRO STATION" }, "geometry": { "type": "Point", "coordinates": [ -8.651359172923229, 41.191544221231354 ] } },
{ "type": "Feature", "properties": { "Denominaca": "Valent`s" }, "geometry": { "type": "Point", "coordinates": [ -8.6013399758705, 41.185239983606586 ] } },
{ "type": "Feature", "properties": { "Denominaca": "Porto Leça - Studios e Apts" }, "geometry": { "type": "Point", "coordinates": [ -8.702362784988296, 41.188871818671274 ] } },
{ "type": "Feature", "properties": { "Denominaca": "Porto.Leça - Studios and Apts" }, "geometry": { "type": "Point", "coordinates": [ -8.702288976201869, 41.188852417270532 ] } },
{ "type": "Feature", "properties": { "Denominaca": "OPORTO CO-LIVING" }, "geometry": { "type": "Point", "coordinates": [ -8.660600031615045, 41.177309990808808 ] } },
{ "type": "Feature", "properties": { "Denominaca": "Oportocean Hostel" }, "geometry": { "type": "Point", "coordinates": [ -8.663272999927154, 41.178498000799202 ] } },
{ "type": "Feature", "properties": { "Denominaca": "GH-Leça Apartments" }, "geometry": { "type": "Point", "coordinates": [ -8.697646570383942, 41.194196174053594 ] } },
{ "type": "Feature", "properties": { "Denominaca": "localinn II" }, "geometry": { "type": "Point", "coordinates": [ -8.676038055460781, 41.179657460265503 ] } },
{ "type": "Feature", "properties": { "Denominaca": "2 Bedroom apartment nearby Agudela beach" }, "geometry": { "type": "Point", "coordinates": [ -8.722399970275212, 41.247129986775491 ] } },
{ "type": "Feature", "properties": { "Denominaca": "T0 Avenida da Republica Matosinhos 594, 5º D" }, "geometry": { "type": "Point", "coordinates": [ -8.686065642725495, 41.180158925269879 ] } },
{ "type": "Feature", "properties": { "Denominaca": "Onice Cozy Apartment" }, "geometry": { "type": "Point", "coordinates": [ -8.597919499852381, 41.18660700100704 ] } },
{ "type": "Feature", "properties": { "Denominaca": "Sunset Guest Home" }, "geometry": { "type": "Point", "coordinates": [ -8.689990000999504, 41.184470021434613 ] } },
{ "type": "Feature", "properties": { "Denominaca": "DOUROCOSTA" }, "geometry": { "type": "Point", "coordinates": [ -8.666355746315434, 41.181185085832546 ] } },
{ "type": "Feature", "properties": { "Denominaca": "Apartamento Leça" }, "geometry": { "type": "Point", "coordinates": [ -8.709759977322811, 41.198640005822313 ] } },
{ "type": "Feature", "properties": { "Denominaca": "LIGHTHOUSE SHELTER" }, "geometry": { "type": "Point", "coordinates": [ -8.70493058421715, 41.20080354495979 ] } },
{ "type": "Feature", "properties": { "Denominaca": "Casa do Conde" }, "geometry": { "type": "Point", "coordinates": [ -8.694229986370663, 41.185579995290816 ] } },
{ "type": "Feature", "properties": { "Denominaca": "SONIA Travels" }, "geometry": { "type": "Point", "coordinates": [ -8.691562514205012, 41.179303142823308 ] } },
{ "type": "Feature", "properties": { "Denominaca": "Apartamento Portas do Mar" }, "geometry": { "type": "Point", "coordinates": [ -8.688378074620779, 41.174566555385638 ] } },
{ "type": "Feature", "properties": { "Denominaca": "Oporto City Chalé" }, "geometry": { "type": "Point", "coordinates": [ -8.687320029415773, 41.225540006512404 ] } },
{ "type": "Feature", "properties": { "Denominaca": "Casa das Andorinhas" }, "geometry": { "type": "Point", "coordinates": [ -8.660815449515832, 41.187409187614392 ] } },
{ "type": "Feature", "properties": { "Denominaca": "Ares do Mar - Apartment and Loft" }, "geometry": { "type": "Point", "coordinates": [ -8.696339962755006, 41.184889996661099 ] } },
{ "type": "Feature", "properties": { "Denominaca": "Matosinhos Rooms" }, "geometry": { "type": "Point", "coordinates": [ -8.674160022321526, 41.174089998944858 ] } },
{ "type": "Feature", "properties": { "Denominaca": "CORDEIRO352" }, "geometry": { "type": "Point", "coordinates": [ -8.685650019427456, 41.17898000089528 ] } },
{ "type": "Feature", "properties": { "Denominaca": "PALMEIRA HOUSE" }, "geometry": { "type": "Point", "coordinates": [ -8.695449972625326, 41.204250014158404 ] } },
{ "type": "Feature", "properties": { "Denominaca": "NICE HOUSE" }, "geometry": { "type": "Point", "coordinates": [ -8.633549906479846, 41.200300760711869 ] } },
{ "type": "Feature", "properties": { "Denominaca": "9 WAVES" }, "geometry": { "type": "Point", "coordinates": [ -8.692336332250402, 41.180828617405218 ] } },
{ "type": "Feature", "properties": { "Denominaca": "Refreshing Seaside House" }, "geometry": { "type": "Point", "coordinates": [ -8.692025399515716, 41.180030094202777 ] } },
{ "type": "Feature", "properties": { "Denominaca": "Porto Family Flat" }, "geometry": { "type": "Point", "coordinates": [ -8.65428360725628, 41.186333232601861 ] } },
{ "type": "Feature", "properties": { "Denominaca": "Thomas Corinth" }, "geometry": { "type": "Point", "coordinates": [ -8.702209977423422, 41.189289993347579 ] } },
{ "type": "Feature", "properties": { "Denominaca": "RIVER SENSES" }, "geometry": { "type": "Point", "coordinates": [ -8.692500671384407, 41.191867022379071 ] } },
{ "type": "Feature", "properties": { "Denominaca": "Feel Porto Matosinhos Casa do Peixe 5" }, "geometry": { "type": "Point", "coordinates": [ -8.693800047485153, 41.185798147928267 ] } },
{ "type": "Feature", "properties": { "Denominaca": "Porto'n'sea" }, "geometry": { "type": "Point", "coordinates": [ -8.690156461495471, 41.179922465521187 ] } },
{ "type": "Feature", "properties": { "Denominaca": "Oporto Beach Apartment - Memória Sunset" }, "geometry": { "type": "Point", "coordinates": [ -8.713477292758887, 41.232017547249228 ] } },
{ "type": "Feature", "properties": { "Denominaca": "Republica Z" }, "geometry": { "type": "Point", "coordinates": [ -8.686056137082618, 41.180131602346499 ] } },
{ "type": "Feature", "properties": { "Denominaca": "FAROL VILLA" }, "geometry": { "type": "Point", "coordinates": [ -8.705024947589989, 41.200705479194959 ] } },
{ "type": "Feature", "properties": { "Denominaca": "Matosinhos Lodge" }, "geometry": { "type": "Point", "coordinates": [ -8.693321746545134, 41.184460121532766 ] } },
{ "type": "Feature", "properties": { "Denominaca": "BACK2HOME/OPORTO - MATOSINHOS BEACH" }, "geometry": { "type": "Point", "coordinates": [ -8.685770734286256, 41.180652647063049 ] } },
{ "type": "Feature", "properties": { "Denominaca": "Moradia" }, "geometry": { "type": "Point", "coordinates": [ -8.718159985468015, 41.25124998554098 ] } },
{ "type": "Feature", "properties": { "Denominaca": "HERDADE DO MANSILHA" }, "geometry": { "type": "Point", "coordinates": [ -8.606896276744903, 41.192142172143285 ] } },
{ "type": "Feature", "properties": { "Denominaca": "Simple Living @Leça do Balio" }, "geometry": { "type": "Point", "coordinates": [ -8.630879955334709, 41.191762685291671 ] } },
{ "type": "Feature", "properties": { "Denominaca": "Matosinhos Studio with Terrace" }, "geometry": { "type": "Point", "coordinates": [ -8.685466237199732, 41.177675151820438 ] } },
{ "type": "Feature", "properties": { "Denominaca": "Mousinho 3" }, "geometry": { "type": "Point", "coordinates": [ -8.686437023741936, 41.179876955851086 ] } },
{ "type": "Feature", "properties": { "Denominaca": "Casa das Mares" }, "geometry": { "type": "Point", "coordinates": [ -8.702130014872438, 41.189300009521254 ] } },
{ "type": "Feature", "properties": { "Denominaca": "Edificio Vencedor, 1 Dtº" }, "geometry": { "type": "Point", "coordinates": [ -8.693393721904748, 41.186173277360631 ] } },
{ "type": "Feature", "properties": { "Denominaca": "Republica X" }, "geometry": { "type": "Point", "coordinates": [ -8.686047941686981, 41.180090303865775 ] } },
{ "type": "Feature", "properties": { "Denominaca": "T2 São João Maria Feliciana 104 4.2" }, "geometry": { "type": "Point", "coordinates": [ -8.597729973936856, 41.186419987292886 ] } },
{ "type": "Feature", "properties": { "Denominaca": "Entre Quintas" }, "geometry": { "type": "Point", "coordinates": [ -8.692023190496004, 41.194257301457178 ] } },
{ "type": "Feature", "properties": { "Denominaca": "Martins House" }, "geometry": { "type": "Point", "coordinates": [ -8.689206800370954, 41.174961600882035 ] } },
{ "type": "Feature", "properties": { "Denominaca": "PENSÃO CENTRAL" }, "geometry": { "type": "Point", "coordinates": [ -8.690099145019325, 41.182550089522891 ] } },
{ "type": "Feature", "properties": { "Denominaca": "SPACIOUS SUITE" }, "geometry": { "type": "Point", "coordinates": [ -8.679449895864989, 41.180014709502565 ] } },
{ "type": "Feature", "properties": { "Denominaca": "CASA DA MI" }, "geometry": { "type": "Point", "coordinates": [ -8.663097154904111, 41.178322875900193 ] } },
{ "type": "Feature", "properties": { "Denominaca": "LAVRA APARTMENT" }, "geometry": { "type": "Point", "coordinates": [ -8.718152803678709, 41.25321161643997 ] } },
{ "type": "Feature", "properties": { "Denominaca": "Canary`s Suite II" }, "geometry": { "type": "Point", "coordinates": [ -8.694746866183282, 41.183557136027041 ] } },
{ "type": "Feature", "properties": { "Denominaca": "Elsa Paula Pereira Pacheco" }, "geometry": { "type": "Point", "coordinates": [ -8.6850440004799, 41.175366001137974 ] } },
{ "type": "Feature", "properties": { "Denominaca": "SLOW RIDER" }, "geometry": { "type": "Point", "coordinates": [ -8.628514807354534, 41.18367711175469 ] } },
{ "type": "Feature", "properties": { "Denominaca": "SEA AND FISH APARTMENT" }, "geometry": { "type": "Point", "coordinates": [ -8.693229148896739, 41.18129680530258 ] } },
{ "type": "Feature", "properties": { "Denominaca": "Casa da Madorninha" }, "geometry": { "type": "Point", "coordinates": [ -8.6536133671061, 41.179032255211702 ] } },
{ "type": "Feature", "properties": { "Denominaca": "Casa de Leça - Leça House" }, "geometry": { "type": "Point", "coordinates": [ -8.69715658172483, 41.199265779315184 ] } },
{ "type": "Feature", "properties": { "Denominaca": "ISAURA CARVALHO" }, "geometry": { "type": "Point", "coordinates": [ -8.717833865563108, 41.226564441337679 ] } },
{ "type": "Feature", "properties": { "Denominaca": "Casa da Praia" }, "geometry": { "type": "Point", "coordinates": [ -8.688458283851222, 41.174959133630942 ] } },
{ "type": "Feature", "properties": { "Denominaca": "Matosinhos Stay" }, "geometry": { "type": "Point", "coordinates": [ -8.68598837730805, 41.181672645451634 ] } },
{ "type": "Feature", "properties": { "Denominaca": "Edificio Vencedor, 2ºandar. centro" }, "geometry": { "type": "Point", "coordinates": [ -8.693368761152207, 41.186165907221216 ] } },
{ "type": "Feature", "properties": { "Denominaca": "PORTO SMART APARTMENTS CONFORT" }, "geometry": { "type": "Point", "coordinates": [ -8.684230040711427, 41.22498001157868 ] } },
{ "type": "Feature", "properties": { "Denominaca": "Casa Mouzi 52" }, "geometry": { "type": "Point", "coordinates": [ -8.686909987026011, 41.181459996061406 ] } },
{ "type": "Feature", "properties": { "Denominaca": "Ocean Porto - Beach House" }, "geometry": { "type": "Point", "coordinates": [ -8.689669980448981, 41.182039982037566 ] } },
{ "type": "Feature", "properties": { "Denominaca": "Oporto Sun Terrace II" }, "geometry": { "type": "Point", "coordinates": [ -8.691420436052423, 41.182560745256175 ] } },
{ "type": "Feature", "properties": { "Denominaca": "A casa das Vigas II" }, "geometry": { "type": "Point", "coordinates": [ -8.607040393051777, 41.192319237482678 ] } },
{ "type": "Feature", "properties": { "Denominaca": "STUDIO 177" }, "geometry": { "type": "Point", "coordinates": [ -8.694056493781424, 41.18527705739573 ] } },
{ "type": "Feature", "properties": { "Denominaca": "DUNAS FLAT" }, "geometry": { "type": "Point", "coordinates": [ -8.724117500493056, 41.239815000635481 ] } },
{ "type": "Feature", "properties": { "Denominaca": "Porto Leça - Studios e Apts" }, "geometry": { "type": "Point", "coordinates": [ -8.702280410883095, 41.188862342698449 ] } },
{ "type": "Feature", "properties": { "Denominaca": "2ºAndar Dtº de Habitação" }, "geometry": { "type": "Point", "coordinates": [ -8.699249186821509, 41.190562475463459 ] } },
{ "type": "Feature", "properties": { "Denominaca": "BRUNO'S BEACH HOUSE" }, "geometry": { "type": "Point", "coordinates": [ -8.720202401298055, 41.245507388143842 ] } },
{ "type": "Feature", "properties": { "Denominaca": "OSA Matosinhos" }, "geometry": { "type": "Point", "coordinates": [ -8.682042499950082, 41.17468200118671 ] } },
{ "type": "Feature", "properties": { "Denominaca": "The Stone Sea House" }, "geometry": { "type": "Point", "coordinates": [ -8.686868038949155, 41.181818616390977 ] } },
{ "type": "Feature", "properties": { "Denominaca": "Paco da Boa Nova 255 3DCS" }, "geometry": { "type": "Point", "coordinates": [ -8.710425803179854, 41.19973691336282 ] } },
{ "type": "Feature", "properties": { "Denominaca": "Perafita Yellow House" }, "geometry": { "type": "Point", "coordinates": [ -8.69005001538919, 41.227549986787288 ] } },
{ "type": "Feature", "properties": { "Denominaca": "Jardim na Praia Apartment" }, "geometry": { "type": "Point", "coordinates": [ -8.690906335185201, 41.180336823788288 ] } },
{ "type": "Feature", "properties": { "Denominaca": "M LOFT" }, "geometry": { "type": "Point", "coordinates": [ -8.679827981364264, 41.185517188059059 ] } },
{ "type": "Feature", "properties": { "Denominaca": "OPORTO CO-LIVING" }, "geometry": { "type": "Point", "coordinates": [ -8.660289984234517, 41.177339998137825 ] } },
{ "type": "Feature", "properties": { "Denominaca": "ROSEIRAS" }, "geometry": { "type": "Point", "coordinates": [ -8.6619500200551, 41.187430006786364 ] } },
{ "type": "Feature", "properties": { "Denominaca": "APARTAMENTO MOUZINHO DE ALBUQUERQUE" }, "geometry": { "type": "Point", "coordinates": [ -8.686677961652739, 41.180808384745589 ] } },
{ "type": "Feature", "properties": { "Denominaca": "Casa Pedra Branca" }, "geometry": { "type": "Point", "coordinates": [ -8.690749988530847, 41.183000003672184 ] } },
{ "type": "Feature", "properties": { "Denominaca": "Casa Santo António" }, "geometry": { "type": "Point", "coordinates": [ -8.704000017491147, 41.192370006988092 ] } },
{ "type": "Feature", "properties": { "Denominaca": "Casa do Sol" }, "geometry": { "type": "Point", "coordinates": [ -8.72251886709013, 41.247584689195989 ] } },
{ "type": "Feature", "properties": { "Denominaca": "Feel Porto Matosinhos Casa do Peixe 2" }, "geometry": { "type": "Point", "coordinates": [ -8.69378662484076, 41.185791934584365 ] } },
{ "type": "Feature", "properties": { "Denominaca": "Sun & Sea Living" }, "geometry": { "type": "Point", "coordinates": [ -8.685450026751562, 41.177530015400883 ] } },
{ "type": "Feature", "properties": { "Denominaca": "SHANTI  HOUSE" }, "geometry": { "type": "Point", "coordinates": [ -8.655236812069836, 41.186712437762054 ] } },
{ "type": "Feature", "properties": { "Denominaca": "Entrequintas Suites" }, "geometry": { "type": "Point", "coordinates": [ -8.690619984954626, 41.19401998520302 ] } },
{ "type": "Feature", "properties": { "Denominaca": "Modern Invicta" }, "geometry": { "type": "Point", "coordinates": [ -8.7168032440928, 41.254263296267261 ] } },
{ "type": "Feature", "properties": { "Denominaca": "Diogo Pinto basto Portela Lagos" }, "geometry": { "type": "Point", "coordinates": [ -8.675154089764504, 41.173649652413964 ] } },
{ "type": "Feature", "properties": { "Denominaca": "B & R APARTMENT" }, "geometry": { "type": "Point", "coordinates": [ -8.691218000076979, 41.194986000764231 ] } },
{ "type": "Feature", "properties": { "Denominaca": "BB Residences III- 511" }, "geometry": { "type": "Point", "coordinates": [ -8.597955662161555, 41.187739603503218 ] } },
{ "type": "Feature", "properties": { "Denominaca": "Casa do Limoeiro" }, "geometry": { "type": "Point", "coordinates": [ -8.614004715109951, 41.185406788289228 ] } },
{ "type": "Feature", "properties": { "Denominaca": "Porto Leça - Studios e Apts" }, "geometry": { "type": "Point", "coordinates": [ -8.702340505511417, 41.188881810987958 ] } },
{ "type": "Feature", "properties": { "Denominaca": "HONEY HOUSE" }, "geometry": { "type": "Point", "coordinates": [ -8.687884929343744, 41.182225009960078 ] } },
{ "type": "Feature", "properties": { "Denominaca": "Feel Porto Matosinhos Ocean Flat I" }, "geometry": { "type": "Point", "coordinates": [ -8.692310027575605, 41.18091001788526 ] } },
{ "type": "Feature", "properties": { "Denominaca": "Sea & Sun Beach Apartment" }, "geometry": { "type": "Point", "coordinates": [ -8.717984898705275, 41.253248787844591 ] } },
{ "type": "Feature", "properties": { "Denominaca": "Maria Sardinha" }, "geometry": { "type": "Point", "coordinates": [ -8.691675950931003, 41.183260672305408 ] } },
{ "type": "Feature", "properties": { "Denominaca": "Ocean Cool Apartment" }, "geometry": { "type": "Point", "coordinates": [ -8.690485983345601, 41.181293638219053 ] } },
{ "type": "Feature", "properties": { "Denominaca": "A CASA PORTUGUESA - MATOSINHOS" }, "geometry": { "type": "Point", "coordinates": [ -8.674094223909522, 41.175122617686625 ] } },
{ "type": "Feature", "properties": { "Denominaca": "GH-Leça Apartments" }, "geometry": { "type": "Point", "coordinates": [ -8.697644340109498, 41.194195904953318 ] } },
{ "type": "Feature", "properties": { "Denominaca": "AL Praia do Paraíso" }, "geometry": { "type": "Point", "coordinates": [ -8.713260008310943, 41.224930012844048 ] } },
{ "type": "Feature", "properties": { "Denominaca": "Fortuna" }, "geometry": { "type": "Point", "coordinates": [ -8.629220029581267, 41.180320015797641 ] } },
{ "type": "Feature", "properties": { "Denominaca": "T1 Leça" }, "geometry": { "type": "Point", "coordinates": [ -8.708439994858667, 41.198349992824966 ] } },
{ "type": "Feature", "properties": { "Denominaca": "CASA DA QUINTA" }, "geometry": { "type": "Point", "coordinates": [ -8.663627465420662, 41.188463865027281 ] } },
{ "type": "Feature", "properties": { "Denominaca": "APARTAMENTO FAROL NASCENTE" }, "geometry": { "type": "Point", "coordinates": [ -8.723508591337191, 41.264402814465775 ] } },
{ "type": "Feature", "properties": { "Denominaca": "Villa in Porto by Homing" }, "geometry": { "type": "Point", "coordinates": [ -8.644039988335201, 41.187180016696416 ] } },
{ "type": "Feature", "properties": { "Denominaca": "sunset@leçadapalmeira" }, "geometry": { "type": "Point", "coordinates": [ -8.703460052560693, 41.199691779446184 ] } },
{ "type": "Feature", "properties": { "Denominaca": "Apartment by the sea" }, "geometry": { "type": "Point", "coordinates": [ -8.690834357173543, 41.180250867088496 ] } },
{ "type": "Feature", "properties": { "Denominaca": "Ocean Boutique Guesthouse" }, "geometry": { "type": "Point", "coordinates": [ -8.68742002603255, 41.180079999604644 ] } },
{ "type": "Feature", "properties": { "Denominaca": "A Blue Sea Apartment" }, "geometry": { "type": "Point", "coordinates": [ -8.723734999853477, 41.242974001097039 ] } },
{ "type": "Feature", "properties": { "Denominaca": "COBBLE STONE" }, "geometry": { "type": "Point", "coordinates": [ -8.690979842167867, 41.180545494375835 ] } },
{ "type": "Feature", "properties": { "Denominaca": "CASA DAS MARES" }, "geometry": { "type": "Point", "coordinates": [ -8.717817500455912, 41.226576001213999 ] } },
{ "type": "Feature", "properties": { "Denominaca": "Feel Porto Matosinhos Casa do Peixe 4" }, "geometry": { "type": "Point", "coordinates": [ -8.693799994789648, 41.185809995124359 ] } },
{ "type": "Feature", "properties": { "Denominaca": "Nau 307" }, "geometry": { "type": "Point", "coordinates": [ -8.703749985419945, 41.195279994205976 ] } },
{ "type": "Feature", "properties": { "Denominaca": "T3 Mat 106" }, "geometry": { "type": "Point", "coordinates": [ -8.685838597000171, 41.181404867999859 ] } },
{ "type": "Feature", "properties": { "Denominaca": "Casa do Vento" }, "geometry": { "type": "Point", "coordinates": [ -8.702321558855701, 41.188964480179344 ] } },
{ "type": "Feature", "properties": { "Denominaca": "Porto Leça - Studios e Apts" }, "geometry": { "type": "Point", "coordinates": [ -8.702293933392596, 41.188864507129558 ] } },
{ "type": "Feature", "properties": { "Denominaca": "HOSTEL DAS FLORES" }, "geometry": { "type": "Point", "coordinates": [ -8.646866626108093, 41.188287210703209 ] } },
{ "type": "Feature", "properties": { "Denominaca": "Isabel AP" }, "geometry": { "type": "Point", "coordinates": [ -8.611098077144979, 41.195075030475486 ] } },
{ "type": "Feature", "properties": { "Denominaca": "MATOSINHOS BEACH APARTMENT" }, "geometry": { "type": "Point", "coordinates": [ -8.683346384448935, 41.17776613387165 ] } },
{ "type": "Feature", "properties": { "Denominaca": "Ocean Front 4 Bed Matosinhos" }, "geometry": { "type": "Point", "coordinates": [ -8.689260021209476, 41.176339994552656 ] } },
{ "type": "Feature", "properties": { "Denominaca": "PORTO SMART APARTMENTS - AIRPORT" }, "geometry": { "type": "Point", "coordinates": [ -8.685252099984265, 41.229379750268819 ] } },
{ "type": "Feature", "properties": { "Denominaca": "T2 Brito Capelo 16 RC A" }, "geometry": { "type": "Point", "coordinates": [ -8.694051220906676, 41.186857346957105 ] } },
{ "type": "Feature", "properties": { "Denominaca": "Quinta Seca Apartment" }, "geometry": { "type": "Point", "coordinates": [ -8.667034935511012, 41.180884072518609 ] } },
{ "type": "Feature", "properties": { "Denominaca": "Home Sweet Home" }, "geometry": { "type": "Point", "coordinates": [ -8.676244223899401, 41.176058383422479 ] } },
{ "type": "Feature", "properties": { "Denominaca": "MyTrip Porto Villas" }, "geometry": { "type": "Point", "coordinates": [ -8.688510007936616, 41.18063999506078 ] } },
{ "type": "Feature", "properties": { "Denominaca": "CASA DO TIO - MATOSINHOS 2" }, "geometry": { "type": "Point", "coordinates": [ -8.685662151309545, 41.180818385170433 ] } },
{ "type": "Feature", "properties": { "Denominaca": "A-Mar Loft" }, "geometry": { "type": "Point", "coordinates": [ -8.681299979201935, 41.184130009845838 ] } },
{ "type": "Feature", "properties": { "Denominaca": "Clara`s Home" }, "geometry": { "type": "Point", "coordinates": [ -8.723144007237396, 41.261282949168596 ] } },
{ "type": "Feature", "properties": { "Denominaca": "Beach House" }, "geometry": { "type": "Point", "coordinates": [ -8.703319993337617, 41.190860007522659 ] } },
{ "type": "Feature", "properties": { "Denominaca": "Republica O" }, "geometry": { "type": "Point", "coordinates": [ -8.686015185592183, 41.180076214520867 ] } },
{ "type": "Feature", "properties": { "Denominaca": "CRISTIANA MARIA GONÇALVES DINIS TERRAS" }, "geometry": { "type": "Point", "coordinates": [ -8.687919546141181, 41.178507580775978 ] } },
{ "type": "Feature", "properties": { "Denominaca": "CASA DA PRAIA- LEÇA DA PALMEIRA" }, "geometry": { "type": "Point", "coordinates": [ -8.703430490156586, 41.190595827773159 ] } },
{ "type": "Feature", "properties": { "Denominaca": "183 Brito Capelo" }, "geometry": { "type": "Point", "coordinates": [ -8.69307001489509, 41.185620019256554 ] } },
{ "type": "Feature", "properties": { "Denominaca": "Porto Leça - Studios e Apts" }, "geometry": { "type": "Point", "coordinates": [ -8.702339981413866, 41.188870017971801 ] } },
{ "type": "Feature", "properties": { "Denominaca": "RADIANT RETREAT" }, "geometry": { "type": "Point", "coordinates": [ -8.700672992205043, 41.194457439340191 ] } },
{ "type": "Feature", "properties": { "Denominaca": "T1 em LAVRA" }, "geometry": { "type": "Point", "coordinates": [ -8.719811000363807, 41.252442000660977 ] } },
{ "type": "Feature", "properties": { "Denominaca": "CASA SCANDIC" }, "geometry": { "type": "Point", "coordinates": [ -8.692410024301516, 41.184670014325732 ] } },
{ "type": "Feature", "properties": { "Denominaca": "NAUTIC INSPIRATIONS" }, "geometry": { "type": "Point", "coordinates": [ -8.690536577144149, 41.18138480405387 ] } },
{ "type": "Feature", "properties": { "Denominaca": "Em sua casa" }, "geometry": { "type": "Point", "coordinates": [ -8.688445319294011, 41.179403714542843 ] } },
{ "type": "Feature", "properties": { "Denominaca": "SEA TRANSMISSION" }, "geometry": { "type": "Point", "coordinates": [ -8.692478442254831, 41.184921836337949 ] } },
{ "type": "Feature", "properties": { "Denominaca": "T2 Mat 105 4DB" }, "geometry": { "type": "Point", "coordinates": [ -8.691349499583056, 41.179986000616161 ] } },
{ "type": "Feature", "properties": { "Denominaca": "My Trip Porto" }, "geometry": { "type": "Point", "coordinates": [ -8.68862488422109, 41.180565049349887 ] } },
{ "type": "Feature", "properties": { "Denominaca": "CASTLE HOUSE BEACH" }, "geometry": { "type": "Point", "coordinates": [ -8.701849974764414, 41.188510015632055 ] } },
{ "type": "Feature", "properties": { "Denominaca": "CASA TREZE" }, "geometry": { "type": "Point", "coordinates": [ -8.70180001909608, 41.196750013198276 ] } },
{ "type": "Feature", "properties": { "Denominaca": "Porto FishLand Apartment" }, "geometry": { "type": "Point", "coordinates": [ -8.692791688757103, 41.185028674829013 ] } },
{ "type": "Feature", "properties": { "Denominaca": "Lavra Beach House" }, "geometry": { "type": "Point", "coordinates": [ -8.721947552576975, 41.250269913318888 ] } },
{ "type": "Feature", "properties": { "Denominaca": "Alojamento Andorinhas" }, "geometry": { "type": "Point", "coordinates": [ -8.663277276281406, 41.188132116324432 ] } },
{ "type": "Feature", "properties": { "Denominaca": "OPORTO SUN TERRACE" }, "geometry": { "type": "Point", "coordinates": [ -8.691424936318789, 41.182551745261229 ] } },
{ "type": "Feature", "properties": { "Denominaca": "SCANDICPLACE" }, "geometry": { "type": "Point", "coordinates": [ -8.69226579673275, 41.184613886771899 ] } },
{ "type": "Feature", "properties": { "Denominaca": "Apartamento Eduardo Torres" }, "geometry": { "type": "Point", "coordinates": [ -8.671899386719954, 41.179562882965911 ] } },
{ "type": "Feature", "properties": { "Denominaca": "Mundo das Ternuras, Lda." }, "geometry": { "type": "Point", "coordinates": [ -8.663280262944534, 41.17850912549995 ] } },
{ "type": "Feature", "properties": { "Denominaca": "PENSÃO LEAO DE OURO" }, "geometry": { "type": "Point", "coordinates": [ -8.694638989502641, 41.185410308746839 ] } },
{ "type": "Feature", "properties": { "Denominaca": "Fresh Sardine" }, "geometry": { "type": "Point", "coordinates": [ -8.683231233923422, 41.177940337276524 ] } },
{ "type": "Feature", "properties": { "Denominaca": "Casa do Corgo" }, "geometry": { "type": "Point", "coordinates": [ -8.717597160562597, 41.25162957353934 ] } },
{ "type": "Feature", "properties": { "Denominaca": "António Carlos Kendall de Bessa Ribas" }, "geometry": { "type": "Point", "coordinates": [ -8.686467048098088, 41.179859597187246 ] } },
{ "type": "Feature", "properties": { "Denominaca": "Casa da Praia Daniel" }, "geometry": { "type": "Point", "coordinates": [ -8.725279993296347, 41.26266001920478 ] } },
{ "type": "Feature", "properties": { "Denominaca": "Margarida Fernandes" }, "geometry": { "type": "Point", "coordinates": [ -8.690180019213333, 41.182700015128482 ] } },
{ "type": "Feature", "properties": { "Denominaca": "Maria Surfista" }, "geometry": { "type": "Point", "coordinates": [ -8.691888739314974, 41.183146155444334 ] } },
{ "type": "Feature", "properties": { "Denominaca": "Edificio Vencedor 1º Esº" }, "geometry": { "type": "Point", "coordinates": [ -8.693378197137198, 41.186159007256258 ] } },
{ "type": "Feature", "properties": { "Denominaca": "Beach Apartment Leça" }, "geometry": { "type": "Point", "coordinates": [ -8.703949977527763, 41.191869984743988 ] } },
{ "type": "Feature", "properties": { "Denominaca": "Rua Direita 18" }, "geometry": { "type": "Point", "coordinates": [ -8.698482385033296, 41.188184172690036 ] } },
{ "type": "Feature", "properties": { "Denominaca": "Casarão Corgo" }, "geometry": { "type": "Point", "coordinates": [ -8.721402659341015, 41.250896771243667 ] } },
{ "type": "Feature", "properties": { "Denominaca": "CITY BEACH" }, "geometry": { "type": "Point", "coordinates": [ -8.684347045390956, 41.177766720056503 ] } },
{ "type": "Feature", "properties": { "Denominaca": "Royal Palms" }, "geometry": { "type": "Point", "coordinates": [ -8.692000352496711, 41.194661723068691 ] } },
{ "type": "Feature", "properties": { "Denominaca": "COZY APARTMENT CLOSE TO BEACH" }, "geometry": { "type": "Point", "coordinates": [ -8.680414982185827, 41.180839439487151 ] } },
{ "type": "Feature", "properties": { "Denominaca": "Family" }, "geometry": { "type": "Point", "coordinates": [ -8.704413128008868, 41.232253787858362 ] } },
{ "type": "Feature", "properties": { "Denominaca": "THE ROOF TOP BEACH APARTMENT" }, "geometry": { "type": "Point", "coordinates": [ -8.687995802091917, 41.173711371472599 ] } },
{ "type": "Feature", "properties": { "Denominaca": "Casa do Papel - Charme em Matosinhos" }, "geometry": { "type": "Point", "coordinates": [ -8.689465121207984, 41.181832446787539 ] } },
{ "type": "Feature", "properties": { "Denominaca": "NO FOOTPRINT HOMES" }, "geometry": { "type": "Point", "coordinates": [ -8.684596354796007, 41.18337044265197 ] } },
{ "type": "Feature", "properties": { "Denominaca": "TP Matosinhos" }, "geometry": { "type": "Point", "coordinates": [ -8.683079960161761, 41.178789983332294 ] } },
{ "type": "Feature", "properties": { "Denominaca": "CASA DOS MÚSICOS" }, "geometry": { "type": "Point", "coordinates": [ -8.657153674586825, 41.183399399531112 ] } },
{ "type": "Feature", "properties": { "Denominaca": "PORTO COUSY ROOM" }, "geometry": { "type": "Point", "coordinates": [ -8.709550010232858, 41.197720008130489 ] } },
{ "type": "Feature", "properties": { "Denominaca": "MyStay Matosinhos Centro" }, "geometry": { "type": "Point", "coordinates": [ -8.682000035784046, 41.181800008586734 ] } },
{ "type": "Feature", "properties": { "Denominaca": "Meet Porto Apartment" }, "geometry": { "type": "Point", "coordinates": [ -8.660694500468393, 41.186589000593543 ] } },
{ "type": "Feature", "properties": { "Denominaca": "LAVRA SUNSET VIEW" }, "geometry": { "type": "Point", "coordinates": [ -8.721954684030999, 41.255981273316003 ] } },
{ "type": "Feature", "properties": { "Denominaca": "Feel Porto Matosinhos Casa do Peixe 1" }, "geometry": { "type": "Point", "coordinates": [ -8.693808798620903, 41.185807386042526 ] } },
{ "type": "Feature", "properties": { "Denominaca": "Own Places Ocean View Apartment" }, "geometry": { "type": "Point", "coordinates": [ -8.687982499609683, 41.173710001172644 ] } },
{ "type": "Feature", "properties": { "Denominaca": "Casa Horizon" }, "geometry": { "type": "Point", "coordinates": [ -8.691153404819126, 41.178882389313578 ] } },
{ "type": "Feature", "properties": { "Denominaca": "Brito Capelo - Alojamento Local Lda." }, "geometry": { "type": "Point", "coordinates": [ -8.68959394767211, 41.180633812051333 ] } },
{ "type": "Feature", "properties": { "Denominaca": "PORTUGUESE HOUSE" }, "geometry": { "type": "Point", "coordinates": [ -8.687986418352038, 41.185009520332933 ] } },
{ "type": "Feature", "properties": { "Denominaca": "Construir Memorias Unipessoal Lda" }, "geometry": { "type": "Point", "coordinates": [ -8.678460022849412, 41.178650005316392 ] } },
{ "type": "Feature", "properties": { "Denominaca": "MATOSINHOS SUL FLAT" }, "geometry": { "type": "Point", "coordinates": [ -8.691563567103604, 41.181021054666381 ] } },
{ "type": "Feature", "properties": { "Denominaca": "Republica I" }, "geometry": { "type": "Point", "coordinates": [ -8.686042742602421, 41.180152460274527 ] } },
{ "type": "Feature", "properties": { "Denominaca": "montes burgos AP" }, "geometry": { "type": "Point", "coordinates": [ -8.627938627559313, 41.183195606510964 ] } },
{ "type": "Feature", "properties": { "Denominaca": "Shi Studio apartments" }, "geometry": { "type": "Point", "coordinates": [ -8.701411332409759, 41.189084761308564 ] } },
{ "type": "Feature", "properties": { "Denominaca": "Vila Maria - Alojamento Local" }, "geometry": { "type": "Point", "coordinates": [ -8.650579968261592, 41.187959994882711 ] } },
{ "type": "Feature", "properties": { "Denominaca": "Casa da Praia, Matosinhos" }, "geometry": { "type": "Point", "coordinates": [ -8.683387134205667, 41.177444868316222 ] } },
{ "type": "Feature", "properties": { "Denominaca": "Feel Porto Matosinhos Casa do Peixe 6" }, "geometry": { "type": "Point", "coordinates": [ -8.693782897534735, 41.185798896835252 ] } },
{ "type": "Feature", "properties": { "Denominaca": "Porto Metro at Home" }, "geometry": { "type": "Point", "coordinates": [ -8.681420008476611, 41.180520007675518 ] } },
{ "type": "Feature", "properties": { "Denominaca": "Feel Porto Matosinhos Ocean Flat IV" }, "geometry": { "type": "Point", "coordinates": [ -8.692304394638468, 41.180917537707863 ] } },
{ "type": "Feature", "properties": { "Denominaca": "WITH D'ALMA APARTMENT" }, "geometry": { "type": "Point", "coordinates": [ -8.682558245339504, 41.180429599781064 ] } },
{ "type": "Feature", "properties": { "Denominaca": "Apartamento Montes Burgos" }, "geometry": { "type": "Point", "coordinates": [ -8.627999332545935, 41.180319262453942 ] } },
{ "type": "Feature", "properties": { "Denominaca": "Apartamento Leça da Palmeira" }, "geometry": { "type": "Point", "coordinates": [ -8.705442760123486, 41.193276071292374 ] } },
{ "type": "Feature", "properties": { "Denominaca": "Casa Santos" }, "geometry": { "type": "Point", "coordinates": [ -8.61675999568182, 41.197190020634039 ] } },
{ "type": "Feature", "properties": { "Denominaca": "Apartamento Praia -Surf" }, "geometry": { "type": "Point", "coordinates": [ -8.690977381814351, 41.180413841886761 ] } },
{ "type": "Feature", "properties": { "Denominaca": "Apartamento Álvaro Castelões" }, "geometry": { "type": "Point", "coordinates": [ -8.688312958874997, 41.183235263058741 ] } },
{ "type": "Feature", "properties": { "Denominaca": "Sea House" }, "geometry": { "type": "Point", "coordinates": [ -8.726546931564439, 41.265052798716198 ] } },
{ "type": "Feature", "properties": { "Denominaca": "Apt Jorge Bento" }, "geometry": { "type": "Point", "coordinates": [ -8.699719966161506, 41.192290002420997 ] } },
{ "type": "Feature", "properties": { "Denominaca": "Republica N" }, "geometry": { "type": "Point", "coordinates": [ -8.686014951769499, 41.180134571590578 ] } },
{ "type": "Feature", "properties": { "Denominaca": "GREY ECLETIC APARTMENT" }, "geometry": { "type": "Point", "coordinates": [ -8.667295999416094, 41.181720000636282 ] } },
{ "type": "Feature", "properties": { "Denominaca": "Apartment with Pool Tennis and Gym" }, "geometry": { "type": "Point", "coordinates": [ -8.692299969807339, 41.19449000056683 ] } },
{ "type": "Feature", "properties": { "Denominaca": "Casa Quinta Sêca" }, "geometry": { "type": "Point", "coordinates": [ -8.670932205355163, 41.181299822490772 ] } },
{ "type": "Feature", "properties": { "Denominaca": "PORTO 1 BEDROOM BEACH APT" }, "geometry": { "type": "Point", "coordinates": [ -8.692182042756921, 41.180225972446848 ] } },
{ "type": "Feature", "properties": { "Denominaca": "CASA D. JOÃO I" }, "geometry": { "type": "Point", "coordinates": [ -8.687339443673729, 41.179184735355513 ] } },
{ "type": "Feature", "properties": { "Denominaca": "Porto In Coração" }, "geometry": { "type": "Point", "coordinates": [ -8.689005900339582, 41.176644380878457 ] } },
{ "type": "Feature", "properties": { "Denominaca": "Titan Leça Studio" }, "geometry": { "type": "Point", "coordinates": [ -8.696209959827728, 41.20084000439531 ] } },
{ "type": "Feature", "properties": { "Denominaca": "OCEANSIDE HOUSE" }, "geometry": { "type": "Point", "coordinates": [ -8.694559982162977, 41.182520013697356 ] } },
{ "type": "Feature", "properties": { "Denominaca": "Afonso Cordeiro Apartment" }, "geometry": { "type": "Point", "coordinates": [ -8.685794250074002, 41.181219000757601 ] } },
{ "type": "Feature", "properties": { "Denominaca": "Matosinho`s Place" }, "geometry": { "type": "Point", "coordinates": [ -8.678819798446296, 41.185989085910776 ] } },
{ "type": "Feature", "properties": { "Denominaca": "MATOSINHOS BEACH" }, "geometry": { "type": "Point", "coordinates": [ -8.691013042068541, 41.180579286055526 ] } },
{ "type": "Feature", "properties": { "Denominaca": "Casa Mouzi" }, "geometry": { "type": "Point", "coordinates": [ -8.686919961820486, 41.181479987155619 ] } },
{ "type": "Feature", "properties": { "Denominaca": "T0 Atriz Rodrigues 289 H4 02" }, "geometry": { "type": "Point", "coordinates": [ -8.637362334275471, 41.184276080072685 ] } },
{ "type": "Feature", "properties": { "Denominaca": "Sweet Charm" }, "geometry": { "type": "Point", "coordinates": [ -8.682648829848853, 41.181043916139295 ] } },
{ "type": "Feature", "properties": { "Denominaca": "Matosinhos Beach Apartment" }, "geometry": { "type": "Point", "coordinates": [ -8.689107006050111, 41.176157532682559 ] } },
{ "type": "Feature", "properties": { "Denominaca": "VILA PORTO" }, "geometry": { "type": "Point", "coordinates": [ -8.705919500096812, 41.252847000694921 ] } },
{ "type": "Feature", "properties": { "Denominaca": "CAPELO GAIVOTA" }, "geometry": { "type": "Point", "coordinates": [ -8.691390030220278, 41.183950008902379 ] } },
{ "type": "Feature", "properties": { "Denominaca": "Tiago" }, "geometry": { "type": "Point", "coordinates": [ -8.688532135400582, 41.180644111368515 ] } },
{ "type": "Feature", "properties": { "Denominaca": "Porto Leça - Studios e Apts" }, "geometry": { "type": "Point", "coordinates": [ -8.702287127367518, 41.188858324210933 ] } },
{ "type": "Feature", "properties": { "Denominaca": "T0 in Matosinhos" }, "geometry": { "type": "Point", "coordinates": [ -8.691439986072389, 41.181390007780834 ] } },
{ "type": "Feature", "properties": { "Denominaca": "T1 Avenida da Republica Matosinhos 594, 4º Dir" }, "geometry": { "type": "Point", "coordinates": [ -8.686053914144246, 41.18014418751914 ] } },
{ "type": "Feature", "properties": { "Denominaca": "Moinho de Vento" }, "geometry": { "type": "Point", "coordinates": [ -8.702402860218582, 41.189026096203847 ] } },
{ "type": "Feature", "properties": { "Denominaca": "Rural House" }, "geometry": { "type": "Point", "coordinates": [ -8.662013936457852, 41.207884219920054 ] } },
{ "type": "Feature", "properties": { "Denominaca": "MARIA ALICE" }, "geometry": { "type": "Point", "coordinates": [ -8.631969206952318, 41.220865300284601 ] } },
{ "type": "Feature", "properties": { "Denominaca": "T2 Matosinhos c/Terraço" }, "geometry": { "type": "Point", "coordinates": [ -8.691471366451267, 41.180002438797608 ] } },
{ "type": "Feature", "properties": { "Denominaca": "Beachfront Penthouse Apartment with Decks & Ocean Views" }, "geometry": { "type": "Point", "coordinates": [ -8.724894793930185, 41.240546647450564 ] } },
{ "type": "Feature", "properties": { "Denominaca": "FONSECA'S PLACE @PORTO.LEÇADOBALIO" }, "geometry": { "type": "Point", "coordinates": [ -8.635238000020877, 41.200836000518812 ] } },
{ "type": "Feature", "properties": { "Denominaca": "BEACH & SUN" }, "geometry": { "type": "Point", "coordinates": [ -8.691633366637083, 41.180003497390764 ] } },
{ "type": "Feature", "properties": { "Denominaca": "Matosinhos Avenida" }, "geometry": { "type": "Point", "coordinates": [ -8.680507671085442, 41.180922445412719 ] } },
{ "type": "Feature", "properties": { "Denominaca": "Maria de Los Angeles Marquez" }, "geometry": { "type": "Point", "coordinates": [ -8.690214527189415, 41.178665662005749 ] } },
{ "type": "Feature", "properties": { "Denominaca": "Faco Travels" }, "geometry": { "type": "Point", "coordinates": [ -8.684086173606683, 41.176852491066725 ] } },
{ "type": "Feature", "properties": { "Denominaca": "Shi Studio apartments" }, "geometry": { "type": "Point", "coordinates": [ -8.701444873044572, 41.189083639543334 ] } },
{ "type": "Feature", "properties": { "Denominaca": "Moradia do Pinhal" }, "geometry": { "type": "Point", "coordinates": [ -8.709358598465647, 41.226696208266787 ] } },
{ "type": "Feature", "properties": { "Denominaca": "BOA NOVA BEACH FLAT" }, "geometry": { "type": "Point", "coordinates": [ -8.710491500146363, 41.198739000919574 ] } },
{ "type": "Feature", "properties": { "Denominaca": "Apartamento Asprela Gardens" }, "geometry": { "type": "Point", "coordinates": [ -8.605315219342241, 41.186083680062104 ] } },
{ "type": "Feature", "properties": { "Denominaca": "New Studio Circunvalação, by UniqueHosts" }, "geometry": { "type": "Point", "coordinates": [ -8.636399926604687, 41.185008909504781 ] } },
{ "type": "Feature", "properties": { "Denominaca": "Infesta 1" }, "geometry": { "type": "Point", "coordinates": [ -8.610090011652252, 41.19114000457499 ] } },
{ "type": "Feature", "properties": { "Denominaca": "NAUTILUS APARTMENT" }, "geometry": { "type": "Point", "coordinates": [ -8.683450021383839, 41.174729999020727 ] } },
{ "type": "Feature", "properties": { "Denominaca": "MATOSINHOS BEACH | CITY'S PARK" }, "geometry": { "type": "Point", "coordinates": [ -8.682916263949304, 41.175230887869859 ] } },
{ "type": "Feature", "properties": { "Denominaca": "Brito Capelo 2" }, "geometry": { "type": "Point", "coordinates": [ -8.689666042804832, 41.181277003334259 ] } },
{ "type": "Feature", "properties": { "Denominaca": "Casa do Mar" }, "geometry": { "type": "Point", "coordinates": [ -8.683217564805007, 41.17596789399407 ] } },
{ "type": "Feature", "properties": { "Denominaca": "PORTO MAR" }, "geometry": { "type": "Point", "coordinates": [ -8.69191497729469, 41.20991636688386 ] } },
{ "type": "Feature", "properties": { "Denominaca": "MimAPARTMENT  IN MATOSINHOS" }, "geometry": { "type": "Point", "coordinates": [ -8.690326424138268, 41.179538410597921 ] } },
{ "type": "Feature", "properties": { "Denominaca": "YELLOW HOUSE" }, "geometry": { "type": "Point", "coordinates": [ -8.660879986253288, 41.193810018650098 ] } },
{ "type": "Feature", "properties": { "Denominaca": "GUESTHOUSE METRO STATION" }, "geometry": { "type": "Point", "coordinates": [ -8.660939334378574, 41.191681958250093 ] } },
{ "type": "Feature", "properties": { "Denominaca": "APARTAMENTO NUNO" }, "geometry": { "type": "Point", "coordinates": [ -8.692149499946474, 41.180910001199791 ] } },
{ "type": "Feature", "properties": { "Denominaca": "BEACH MATOSINHOS SUL" }, "geometry": { "type": "Point", "coordinates": [ -8.691552672370578, 41.181005167190065 ] } },
{ "type": "Feature", "properties": { "Denominaca": "Liiiving in Matosinhos | City Beach Apartment" }, "geometry": { "type": "Point", "coordinates": [ -8.690150011640524, 41.179880008143215 ] } },
{ "type": "Feature", "properties": { "Denominaca": "Maria do Mar" }, "geometry": { "type": "Point", "coordinates": [ -8.691880036303862, 41.183139981105718 ] } },
{ "type": "Feature", "properties": { "Denominaca": "Feel Porto Matosinhos Casa do Peixe 3" }, "geometry": { "type": "Point", "coordinates": [ -8.69380261852462, 41.185803049050655 ] } },
{ "type": "Feature", "properties": { "Denominaca": "Casa do Sol" }, "geometry": { "type": "Point", "coordinates": [ -8.722536348902949, 41.24757915127109 ] } },
{ "type": "Feature", "properties": { "Denominaca": "Maria do Mar" }, "geometry": { "type": "Point", "coordinates": [ -8.691678554488229, 41.183263259217313 ] } },
{ "type": "Feature", "properties": { "Denominaca": "Apartamento Viela Barranha" }, "geometry": { "type": "Point", "coordinates": [ -8.664529970675268, 41.186759999601442 ] } },
{ "type": "Feature", "properties": { "Denominaca": "PENSÃO CENTRAL" }, "geometry": { "type": "Point", "coordinates": [ -8.690090189437766, 41.182538974713879 ] } },
{ "type": "Feature", "properties": { "Denominaca": "BEACH MATOSINHOS SUL" }, "geometry": { "type": "Point", "coordinates": [ -8.691553602804518, 41.181015364544059 ] } },
{ "type": "Feature", "properties": { "Denominaca": "José Carreira  Pinto" }, "geometry": { "type": "Point", "coordinates": [ -8.684717114552107, 41.180748572985287 ] } },
{ "type": "Feature", "properties": { "Denominaca": "Republica AC" }, "geometry": { "type": "Point", "coordinates": [ -8.686034315654039, 41.180099075536589 ] } },
{ "type": "Feature", "properties": { "Denominaca": "Casarão Corgo" }, "geometry": { "type": "Point", "coordinates": [ -8.721641373079434, 41.250905959217491 ] } },
{ "type": "Feature", "properties": { "Denominaca": "Inês Maria Dargan" }, "geometry": { "type": "Point", "coordinates": [ -8.68605997835258, 41.176699997669104 ] } },
{ "type": "Feature", "properties": { "Denominaca": "MY STUDIO" }, "geometry": { "type": "Point", "coordinates": [ -8.631088999718502, 41.18788500061806 ] } },
{ "type": "Feature", "properties": { "Denominaca": "THE LOFT" }, "geometry": { "type": "Point", "coordinates": [ -8.692550002562633, 41.186469985671536 ] } },
{ "type": "Feature", "properties": { "Denominaca": "OCEANO" }, "geometry": { "type": "Point", "coordinates": [ -8.686414495366774, 41.178786169975105 ] } },
{ "type": "Feature", "properties": { "Denominaca": "GH-Leça Apartments" }, "geometry": { "type": "Point", "coordinates": [ -8.697650681916034, 41.194199239663369 ] } },
{ "type": "Feature", "properties": { "Denominaca": "Ondas do Mar" }, "geometry": { "type": "Point", "coordinates": [ -8.711450290109072, 41.221900940709297 ] } },
{ "type": "Feature", "properties": { "Denominaca": "Casa Cardoso" }, "geometry": { "type": "Point", "coordinates": [ -8.65739001347491, 41.194650010995801 ] } },
{ "type": "Feature", "properties": { "Denominaca": "Dream Stay" }, "geometry": { "type": "Point", "coordinates": [ -8.72221170515486, 41.238238026566506 ] } },
{ "type": "Feature", "properties": { "Denominaca": "Feel Porto Matosinhos Ocean Flat III" }, "geometry": { "type": "Point", "coordinates": [ -8.692312452219229, 41.180896903964332 ] } },
{ "type": "Feature", "properties": { "Denominaca": "Brito Capelo 4" }, "geometry": { "type": "Point", "coordinates": [ -8.689664903063861, 41.181266966352467 ] } },
{ "type": "Feature", "properties": { "Denominaca": "CARUMA HOSTEL & SUITES" }, "geometry": { "type": "Point", "coordinates": [ -8.688310016500582, 41.17901000832417 ] } },
{ "type": "Feature", "properties": { "Denominaca": "Shi Studio Master House" }, "geometry": { "type": "Point", "coordinates": [ -8.701428595689785, 41.189080212700389 ] } },
{ "type": "Feature", "properties": { "Denominaca": "9 WAVES" }, "geometry": { "type": "Point", "coordinates": [ -8.692313226606093, 41.180840684594095 ] } },
{ "type": "Feature", "properties": { "Denominaca": "Apartamento 0.1 Comendador" }, "geometry": { "type": "Point", "coordinates": [ -8.683383895655201, 41.177436117201133 ] } },
{ "type": "Feature", "properties": { "Denominaca": "Republica J" }, "geometry": { "type": "Point", "coordinates": [ -8.686041135660634, 41.180143487103628 ] } },
{ "type": "Feature", "properties": { "Denominaca": "CASA RIETSCH" }, "geometry": { "type": "Point", "coordinates": [ -8.691316496444678, 41.181336315870453 ] } },
{ "type": "Feature", "properties": { "Denominaca": "MAR & TERRA" }, "geometry": { "type": "Point", "coordinates": [ -8.674582468220645, 41.179248526480812 ] } },
{ "type": "Feature", "properties": { "Denominaca": "VARANDA NA PRAIA" }, "geometry": { "type": "Point", "coordinates": [ -8.687985814529084, 41.173715324756486 ] } },
{ "type": "Feature", "properties": { "Denominaca": "LOFT 201" }, "geometry": { "type": "Point", "coordinates": [ -8.653682288102576, 41.180883995681484 ] } },
{ "type": "Feature", "properties": { "Denominaca": "Love Sea Apartment" }, "geometry": { "type": "Point", "coordinates": [ -8.709598791160165, 41.197540030727673 ] } },
{ "type": "Feature", "properties": { "Denominaca": "Smart Luxury Houses - Leça da Palmeira" }, "geometry": { "type": "Point", "coordinates": [ -8.699709661268564, 41.189974555606028 ] } },
{ "type": "Feature", "properties": { "Denominaca": "Simple Living @ Senhora da Hora II" }, "geometry": { "type": "Point", "coordinates": [ -8.651848500027722, 41.191548504947562 ] } },
{ "type": "Feature", "properties": { "Denominaca": "Matosinhos Apartment" }, "geometry": { "type": "Point", "coordinates": [ -8.679929496224213, 41.185301322611252 ] } },
{ "type": "Feature", "properties": { "Denominaca": "Living in Matosinhos/Sea View Apartment" }, "geometry": { "type": "Point", "coordinates": [ -8.687988996297106, 41.173704868934841 ] } },
{ "type": "Feature", "properties": { "Denominaca": "CASA DO TIO - MATOSINHOS PRAIA" }, "geometry": { "type": "Point", "coordinates": [ -8.685779891777342, 41.180662804087518 ] } },
{ "type": "Feature", "properties": { "Denominaca": "Alojamento" }, "geometry": { "type": "Point", "coordinates": [ -8.68738487542967, 41.184654657571677 ] } },
{ "type": "Feature", "properties": { "Denominaca": "Helena House" }, "geometry": { "type": "Point", "coordinates": [ -8.654867098529561, 41.189051348049375 ] } },
{ "type": "Feature", "properties": { "Denominaca": "GUEST HOUSE S. FRANCISCO" }, "geometry": { "type": "Point", "coordinates": [ -8.689431303512483, 41.179691942533672 ] } },
{ "type": "Feature", "properties": { "Denominaca": "Condomínio Pedras Agudela" }, "geometry": { "type": "Point", "coordinates": [ -8.725544912681828, 41.2427875552183 ] } },
{ "type": "Feature", "properties": { "Denominaca": "Porto Leça - Studios e Apts" }, "geometry": { "type": "Point", "coordinates": [ -8.702295779654369, 41.188858440826003 ] } },
{ "type": "Feature", "properties": { "Denominaca": "Bright & Sunny Beach House" }, "geometry": { "type": "Point", "coordinates": [ -8.699930381421527, 41.190586555500744 ] } },
{ "type": "Feature", "properties": { "Denominaca": "Katia Picciotto Almeida de Eça" }, "geometry": { "type": "Point", "coordinates": [ -8.689187012785792, 41.177352552981006 ] } },
{ "type": "Feature", "properties": { "Denominaca": "Porto Leça - Studios e Apts" }, "geometry": { "type": "Point", "coordinates": [ -8.702326762306271, 41.188854303306705 ] } },
{ "type": "Feature", "properties": { "Denominaca": "CARAVELA" }, "geometry": { "type": "Point", "coordinates": [ -8.717502745651796, 41.226593490593991 ] } },
{ "type": "Feature", "properties": { "Denominaca": "SUNNY HOME" }, "geometry": { "type": "Point", "coordinates": [ -8.690224045274801, 41.178756720553963 ] } },
{ "type": "Feature", "properties": { "Denominaca": "MATOSINHOS" }, "geometry": { "type": "Point", "coordinates": [ -8.687353903400162, 41.18242648856743 ] } },
{ "type": "Feature", "properties": { "Denominaca": "CASA DA SOFIA" }, "geometry": { "type": "Point", "coordinates": [ -8.706750035375718, 41.195490003204185 ] } },
{ "type": "Feature", "properties": { "Denominaca": "Apartamento Lavra" }, "geometry": { "type": "Point", "coordinates": [ -8.722260000443232, 41.243019464527833 ] } },
{ "type": "Feature", "properties": { "Denominaca": "MAT002" }, "geometry": { "type": "Point", "coordinates": [ -8.683001341903886, 41.17709775006162 ] } },
{ "type": "Feature", "properties": { "Denominaca": "JONATHAN CARVALHO ARAICO" }, "geometry": { "type": "Point", "coordinates": [ -8.652423411744037, 41.190725452448682 ] } },
{ "type": "Feature", "properties": { "Denominaca": "Nomad's Family - 2BDR Beach Vibe Matosinhos" }, "geometry": { "type": "Point", "coordinates": [ -8.689729994527237, 41.175979992315931 ] } },
{ "type": "Feature", "properties": { "Denominaca": "ALFREDO CUNHA" }, "geometry": { "type": "Point", "coordinates": [ -8.682840983911046, 41.184175232698308 ] } },
{ "type": "Feature", "properties": { "Denominaca": "Mousinho 2D" }, "geometry": { "type": "Point", "coordinates": [ -8.686459962133139, 41.179869991575906 ] } },
{ "type": "Feature", "properties": { "Denominaca": "ALBINA´S HOUSE" }, "geometry": { "type": "Point", "coordinates": [ -8.702169996483274, 41.191869984749957 ] } },
{ "type": "Feature", "properties": { "Denominaca": "O RECUADO" }, "geometry": { "type": "Point", "coordinates": [ -8.690997006703196, 41.180579204353798 ] } },
{ "type": "Feature", "properties": { "Denominaca": "Matosinhos Stylish" }, "geometry": { "type": "Point", "coordinates": [ -8.684680481315089, 41.181249684411128 ] } },
{ "type": "Feature", "properties": { "Denominaca": "OPORTO BEACH  HOSTEL" }, "geometry": { "type": "Point", "coordinates": [ -8.687362562956862, 41.180309413881503 ] } },
{ "type": "Feature", "properties": { "Denominaca": "M  &  M  GEST" }, "geometry": { "type": "Point", "coordinates": [ -8.690558688804778, 41.182246331358634 ] } },
{ "type": "Feature", "properties": { "Denominaca": "Ricardo Lopes" }, "geometry": { "type": "Point", "coordinates": [ -8.689198465054355, 41.174948862217832 ] } },
{ "type": "Feature", "properties": { "Denominaca": "Porto Leça - Studios e Apts" }, "geometry": { "type": "Point", "coordinates": [ -8.702347280920444, 41.188860099696313 ] } },
{ "type": "Feature", "properties": { "Denominaca": "PORTO SEA APARTMENTS" }, "geometry": { "type": "Point", "coordinates": [ -8.688936239976405, 41.173740576961286 ] } },
{ "type": "Feature", "properties": { "Denominaca": "Feel Porto Matosinhos Ocean Flat VI" }, "geometry": { "type": "Point", "coordinates": [ -8.692269962940292, 41.180930008344106 ] } },
{ "type": "Feature", "properties": { "Denominaca": "SUIT DREAMS" }, "geometry": { "type": "Point", "coordinates": [ -8.665170799932769, 41.181043342046586 ] } },
{ "type": "Feature", "properties": { "Denominaca": "Quinta do Gestal Turismo Rural Lda" }, "geometry": { "type": "Point", "coordinates": [ -8.631910033533671, 41.215950018929256 ] } },
{ "type": "Feature", "properties": { "Denominaca": "Sara Peixoto" }, "geometry": { "type": "Point", "coordinates": [ -8.685972386099982, 41.176050841464814 ] } },
{ "type": "Feature", "properties": { "Denominaca": "GH-Leça Apartments" }, "geometry": { "type": "Point", "coordinates": [ -8.697650250955116, 41.194192229248472 ] } },
{ "type": "Feature", "properties": { "Denominaca": "Cabo do Mundo" }, "geometry": { "type": "Point", "coordinates": [ -8.713933999778572, 41.223993000700204 ] } },
{ "type": "Feature", "properties": { "Denominaca": "Matosinhos Stylish by Homing" }, "geometry": { "type": "Point", "coordinates": [ -8.69114997296473, 41.180839986743855 ] } },
{ "type": "Feature", "properties": { "Denominaca": "Matosinhos" }, "geometry": { "type": "Point", "coordinates": [ -8.680508852494603, 41.180908742461618 ] } },
{ "type": "Feature", "properties": { "Denominaca": "Leça - Panoramic City View" }, "geometry": { "type": "Point", "coordinates": [ -8.691720026198039, 41.193960012332504 ] } },
{ "type": "Feature", "properties": { "Denominaca": "RE FEEL MATOSINHOS" }, "geometry": { "type": "Point", "coordinates": [ -8.690832237350543, 41.180499431923927 ] } },
{ "type": "Feature", "properties": { "Denominaca": "TULLINS PALMEIRA APARTMENT" }, "geometry": { "type": "Point", "coordinates": [ -8.700788555790689, 41.194956647325505 ] } },
{ "type": "Feature", "properties": { "Denominaca": "O RECUADO" }, "geometry": { "type": "Point", "coordinates": [ -8.691025345318616, 41.180562170522123 ] } },
{ "type": "Feature", "properties": { "Denominaca": "HELDER RODRIGO PINTO" }, "geometry": { "type": "Point", "coordinates": [ -8.693030388586804, 41.191631078074842 ] } },
{ "type": "Feature", "properties": { "Denominaca": "CASA DE MOALDE" }, "geometry": { "type": "Point", "coordinates": [ -8.605941884050072, 41.192799486413023 ] } },
{ "type": "Feature", "properties": { "Denominaca": "Maria Van Zeller de Azevedo" }, "geometry": { "type": "Point", "coordinates": [ -8.689801385184147, 41.179947497144276 ] } },
{ "type": "Feature", "properties": { "Denominaca": "Apartamento Matosinhos Sul" }, "geometry": { "type": "Point", "coordinates": [ -8.686568655600489, 41.179290119302863 ] } },
{ "type": "Feature", "properties": { "Denominaca": "Republica T" }, "geometry": { "type": "Point", "coordinates": [ -8.686064734907507, 41.180137286000274 ] } },
{ "type": "Feature", "properties": { "Denominaca": "APARTAMENTO MATOSINHOS" }, "geometry": { "type": "Point", "coordinates": [ -8.668092499622906, 41.181540001282656 ] } },
{ "type": "Feature", "properties": { "Denominaca": "Near The Beach Apartments II" }, "geometry": { "type": "Point", "coordinates": [ -8.696398664755788, 41.18481796341127 ] } },
{ "type": "Feature", "properties": { "Denominaca": "9 WAVES" }, "geometry": { "type": "Point", "coordinates": [ -8.692357321073194, 41.180815132409265 ] } },
{ "type": "Feature", "properties": { "Denominaca": "SEE YOUAROUND - LOFT SEIXO" }, "geometry": { "type": "Point", "coordinates": [ -8.628289973434864, 41.189250011247118 ] } },
{ "type": "Feature", "properties": { "Denominaca": "Salty House" }, "geometry": { "type": "Point", "coordinates": [ -8.683220021592462, 41.178099984855479 ] } },
{ "type": "Feature", "properties": { "Denominaca": "Apartamento Real de Baixo" }, "geometry": { "type": "Point", "coordinates": [ -8.674580039780636, 41.178600007622578 ] } },
{ "type": "Feature", "properties": { "Denominaca": "HARBOUR INN GUEST HOUSE" }, "geometry": { "type": "Point", "coordinates": [ -8.694020020733943, 41.180880010456747 ] } },
{ "type": "Feature", "properties": { "Denominaca": "LCMS" }, "geometry": { "type": "Point", "coordinates": [ -8.690324193465063, 41.179544219256641 ] } },
{ "type": "Feature", "properties": { "Denominaca": "SMILE HOUSE" }, "geometry": { "type": "Point", "coordinates": [ -8.611149819484245, 41.1931556207849 ] } },
{ "type": "Feature", "properties": { "Denominaca": "SEA & CITY APARTMENT" }, "geometry": { "type": "Point", "coordinates": [ -8.700775418601959, 41.195047379683217 ] } },
{ "type": "Feature", "properties": { "Denominaca": "O SARDINHAS" }, "geometry": { "type": "Point", "coordinates": [ -8.693491794764713, 41.185886082135077 ] } },
{ "type": "Feature", "properties": { "Denominaca": "Casa de Leça" }, "geometry": { "type": "Point", "coordinates": [ -8.706091265252295, 41.194174736103825 ] } },
{ "type": "Feature", "properties": { "Denominaca": "Liiiving in Matosinhos | Seaside Cosy Apartment" }, "geometry": { "type": "Point", "coordinates": [ -8.692479728434932, 41.18491708933356 ] } },
{ "type": "Feature", "properties": { "Denominaca": "Near The Beach Apartments" }, "geometry": { "type": "Point", "coordinates": [ -8.69639711097288, 41.184833592548678 ] } },
{ "type": "Feature", "properties": { "Denominaca": "CASA OLI" }, "geometry": { "type": "Point", "coordinates": [ -8.661980027688163, 41.187380008636559 ] } },
{ "type": "Feature", "properties": { "Denominaca": "A casa das Vigas I" }, "geometry": { "type": "Point", "coordinates": [ -8.607040005245818, 41.192320008945579 ] } },
{ "type": "Feature", "properties": { "Denominaca": "NICE BEACH ROOM" }, "geometry": { "type": "Point", "coordinates": [ -8.690158786940623, 41.179920665120349 ] } },
{ "type": "Feature", "properties": { "Denominaca": "ARAUJO 111" }, "geometry": { "type": "Point", "coordinates": [ -8.638653718269181, 41.219192490926673 ] } },
{ "type": "Feature", "properties": { "Denominaca": "BALIO HOUSES" }, "geometry": { "type": "Point", "coordinates": [ -8.622120984887681, 41.207891601259078 ] } },
{ "type": "Feature", "properties": { "Denominaca": "Portas do Mar" }, "geometry": { "type": "Point", "coordinates": [ -8.688200011410114, 41.174549220491627 ] } },
{ "type": "Feature", "properties": { "Denominaca": "FAROL VIEW" }, "geometry": { "type": "Point", "coordinates": [ -8.710849959567415, 41.200039993809611 ] } },
{ "type": "Feature", "properties": { "Denominaca": "FOZ DO LEÇA STUDIO" }, "geometry": { "type": "Point", "coordinates": [ -8.686819965248871, 41.1999299814022 ] } },
{ "type": "Feature", "properties": { "Denominaca": "ANDREA VIEIRA LOURENÇO DE BARROS" }, "geometry": { "type": "Point", "coordinates": [ -8.691219961648894, 41.180930008410179 ] } },
{ "type": "Feature", "properties": { "Denominaca": "OSIRIS" }, "geometry": { "type": "Point", "coordinates": [ -8.709876615473172, 41.197892605406764 ] } },
{ "type": "Feature", "properties": { "Denominaca": "SEA HOUSE" }, "geometry": { "type": "Point", "coordinates": [ -8.721447088474989, 41.248565047455635 ] } },
{ "type": "Feature", "properties": { "Denominaca": "Fisherman BLUES" }, "geometry": { "type": "Point", "coordinates": [ -8.695694700222054, 41.185234456119815 ] } },
{ "type": "Feature", "properties": { "Denominaca": "Ocean 329" }, "geometry": { "type": "Point", "coordinates": [ -8.684410000361481, 41.179049989770185 ] } },
{ "type": "Feature", "properties": { "Denominaca": "DIANA MARIA MARTINS PALMEIRA" }, "geometry": { "type": "Point", "coordinates": [ -8.687731698805198, 41.18029149759559 ] } },
{ "type": "Feature", "properties": { "Denominaca": "OPORTO BEACH HOUSE MATOSINHOS" }, "geometry": { "type": "Point", "coordinates": [ -8.691286348536998, 41.177697222421777 ] } },
{ "type": "Feature", "properties": { "Denominaca": "Apartamento" }, "geometry": { "type": "Point", "coordinates": [ -8.688530040998954, 41.180739991102065 ] } },
{ "type": "Feature", "properties": { "Denominaca": "DOTOSO" }, "geometry": { "type": "Point", "coordinates": [ -8.676900000034298, 41.186690001031728 ] } },
{ "type": "Feature", "properties": { "Denominaca": "Simplelink" }, "geometry": { "type": "Point", "coordinates": [ -8.653148999439791, 41.179195478594551 ] } },
{ "type": "Feature", "properties": { "Denominaca": "I Unit" }, "geometry": { "type": "Point", "coordinates": [ -8.686050570989613, 41.180091600467541 ] } },
{ "type": "Feature", "properties": { "Denominaca": "CASA VILA SETE BICAS" }, "geometry": { "type": "Point", "coordinates": [ -8.647486695684345, 41.182774890769899 ] } },
{ "type": "Feature", "properties": { "Denominaca": "MY HOUSE" }, "geometry": { "type": "Point", "coordinates": [ -8.701390213208891, 41.196944367261118 ] } },
{ "type": "Feature", "properties": { "Denominaca": "CASA MATOSINHOS" }, "geometry": { "type": "Point", "coordinates": [ -8.698660000579087, 41.204215804419938 ] } },
{ "type": "Feature", "properties": { "Denominaca": "A Casa do Pescador de Leça" }, "geometry": { "type": "Point", "coordinates": [ -8.703567947095939, 41.189459443747118 ] } },
{ "type": "Feature", "properties": { "Denominaca": "Oportocean Suites" }, "geometry": { "type": "Point", "coordinates": [ -8.66791476263832, 41.177665152174164 ] } },
{ "type": "Feature", "properties": { "Denominaca": "Porto Leça - Studios e Apts" }, "geometry": { "type": "Point", "coordinates": [ -8.702325156002319, 41.188863715315591 ] } },
{ "type": "Feature", "properties": { "Denominaca": "Sunset Lounge CorgoMar" }, "geometry": { "type": "Point", "coordinates": [ -8.720726119725194, 41.253386596435334 ] } },
{ "type": "Feature", "properties": { "Denominaca": "Matosinhos 1" }, "geometry": { "type": "Point", "coordinates": [ -8.688240884096553, 41.18003577884177 ] } },
{ "type": "Feature", "properties": { "Denominaca": "TRYBOU MESQUITA" }, "geometry": { "type": "Point", "coordinates": [ -8.698754617930058, 41.195710595106817 ] } },
{ "type": "Feature", "properties": { "Denominaca": "Canary`s Suite I" }, "geometry": { "type": "Point", "coordinates": [ -8.694886255211735, 41.183631332283142 ] } },
{ "type": "Feature", "properties": { "Denominaca": "IMPACT" }, "geometry": { "type": "Point", "coordinates": [ -8.716545562508561, 41.265199141777622 ] } },
{ "type": "Feature", "properties": { "Denominaca": "Ricardo Praia" }, "geometry": { "type": "Point", "coordinates": [ -8.655682641451632, 41.191241471236197 ] } },
{ "type": "Feature", "properties": { "Denominaca": "PORTO CHARMING FLAT" }, "geometry": { "type": "Point", "coordinates": [ -8.653701455308108, 41.180892316363398 ] } },
{ "type": "Feature", "properties": { "Denominaca": "Infesta 2" }, "geometry": { "type": "Point", "coordinates": [ -8.610129993115159, 41.19112001422819 ] } },
{ "type": "Feature", "properties": { "Denominaca": "SEE MATOSINHOS" }, "geometry": { "type": "Point", "coordinates": [ -8.691276725610106, 41.177706833424025 ] } },
{ "type": "Feature", "properties": { "Denominaca": "GH-Leça Apartments" }, "geometry": { "type": "Point", "coordinates": [ -8.697649900738513, 41.194194755763235 ] } },
{ "type": "Feature", "properties": { "Denominaca": "Cantinho de Matosinhos" }, "geometry": { "type": "Point", "coordinates": [ -8.667999613493908, 41.181584449313227 ] } },
{ "type": "Feature", "properties": { "Denominaca": "Isabel Castro" }, "geometry": { "type": "Point", "coordinates": [ -8.688800022245255, 41.180869993948484 ] } },
{ "type": "Feature", "properties": { "Denominaca": "Maria Home" }, "geometry": { "type": "Point", "coordinates": [ -8.606470035566483, 41.193099987108376 ] } },
{ "type": "Feature", "properties": { "Denominaca": "Apartamento com vista para o Mar de Matosinhos Sul" }, "geometry": { "type": "Point", "coordinates": [ -8.686609998162362, 41.174469991761555 ] } },
{ "type": "Feature", "properties": { "Denominaca": "Ar de Sal -  Angeiras Rooms" }, "geometry": { "type": "Point", "coordinates": [ -8.725049992822191, 41.262819987637471 ] } },
{ "type": "Feature", "properties": { "Denominaca": "Parcelas & Vetores" }, "geometry": { "type": "Point", "coordinates": [ -8.672428462532634, 41.180496787257908 ] } },
{ "type": "Feature", "properties": { "Denominaca": "N. JOTA - IMOBILIARIA E GESTÃO LDA" }, "geometry": { "type": "Point", "coordinates": [ -8.617964384952245, 41.184102060128694 ] } },
{ "type": "Feature", "properties": { "Denominaca": "Casa do Terraço" }, "geometry": { "type": "Point", "coordinates": [ -8.703503628781164, 41.194887109435143 ] } },
{ "type": "Feature", "properties": { "Denominaca": "Parque da Cidade" }, "geometry": { "type": "Point", "coordinates": [ -8.674160022175434, 41.174499999316495 ] } },
{ "type": "Feature", "properties": { "Denominaca": "Holiday Lavra" }, "geometry": { "type": "Point", "coordinates": [ -8.720981448689914, 41.244990856061392 ] } },
{ "type": "Feature", "properties": { "Denominaca": "AL" }, "geometry": { "type": "Point", "coordinates": [ -8.691560015061775, 41.186560007724452 ] } },
{ "type": "Feature", "properties": { "Denominaca": "Alva luxury flat" }, "geometry": { "type": "Point", "coordinates": [ -8.694607220241297, 41.186928988683412 ] } },
{ "type": "Feature", "properties": { "Denominaca": "Godinho House" }, "geometry": { "type": "Point", "coordinates": [ -8.691730000722389, 41.181680021857019 ] } },
{ "type": "Feature", "properties": { "Denominaca": "Ocean Transmission" }, "geometry": { "type": "Point", "coordinates": [ -8.693923689435252, 41.186816287198042 ] } },
{ "type": "Feature", "properties": { "Denominaca": "Apartamento Porto" }, "geometry": { "type": "Point", "coordinates": [ -8.661094999648705, 41.185869000916178 ] } },
{ "type": "Feature", "properties": { "Denominaca": "APARTMENT BEACH LAVRA-PORTO" }, "geometry": { "type": "Point", "coordinates": [ -8.718038000037783, 41.259714001235245 ] } },
{ "type": "Feature", "properties": { "Denominaca": "Republica V" }, "geometry": { "type": "Point", "coordinates": [ -8.686034826178892, 41.180079146576773 ] } },
{ "type": "Feature", "properties": { "Denominaca": "Andrade Corvo" }, "geometry": { "type": "Point", "coordinates": [ -8.65989000012679, 41.190409982980448 ] } },
{ "type": "Feature", "properties": { "Denominaca": "Near The Beach Apartments III" }, "geometry": { "type": "Point", "coordinates": [ -8.696387770352009, 41.184826943544273 ] } },
{ "type": "Feature", "properties": { "Denominaca": "Apartamento Matosinhos" }, "geometry": { "type": "Point", "coordinates": [ -8.685824453443587, 41.178726471793254 ] } },
{ "type": "Feature", "properties": { "Denominaca": "CASA BELA" }, "geometry": { "type": "Point", "coordinates": [ -8.606965754158882, 41.192185175342445 ] } },
{ "type": "Feature", "properties": { "Denominaca": "UMNII STAR, UNIPESSOAL, LDA" }, "geometry": { "type": "Point", "coordinates": [ -8.694619996951818, 41.184390016566866 ] } },
{ "type": "Feature", "properties": { "Denominaca": "SEASIDE COZY 3 BEDROOM APARTMENT" }, "geometry": { "type": "Point", "coordinates": [ -8.687514878250104, 41.178073410655308 ] } },
{ "type": "Feature", "properties": { "Denominaca": "T1 LOFT MOBILADO E EQUIPADO" }, "geometry": { "type": "Point", "coordinates": [ -8.653728015209294, 41.180889327537976 ] } },
{ "type": "Feature", "properties": { "Denominaca": "27" }, "geometry": { "type": "Point", "coordinates": [ -8.720076499593365, 41.249571001016029 ] } },
{ "type": "Feature", "properties": { "Denominaca": "9 WAVES" }, "geometry": { "type": "Point", "coordinates": [ -8.69232582186269, 41.180833131866706 ] } },
{ "type": "Feature", "properties": { "Denominaca": "SWEET HOME CR2" }, "geometry": { "type": "Point", "coordinates": [ -8.68882446104875, 41.182311385154236 ] } },
{ "type": "Feature", "properties": { "Denominaca": "Matosinhos Premium" }, "geometry": { "type": "Point", "coordinates": [ -8.683510036079337, 41.177140005895744 ] } },
{ "type": "Feature", "properties": { "Denominaca": "CARLA FILIPA MOURA GUEDES" }, "geometry": { "type": "Point", "coordinates": [ -8.687339564852921, 41.177768533211641 ] } },
{ "type": "Feature", "properties": { "Denominaca": "Matosinhos Waveside by Amber Star Rent" }, "geometry": { "type": "Point", "coordinates": [ -8.692744219039144, 41.182044234553679 ] } },
{ "type": "Feature", "properties": { "Denominaca": "Serpa Beach House" }, "geometry": { "type": "Point", "coordinates": [ -8.694580015417314, 41.183989989762672 ] } },
{ "type": "Feature", "properties": { "Denominaca": "CASA DA LUNA 2" }, "geometry": { "type": "Point", "coordinates": [ -8.683239970215176, 41.181659989000792 ] } },
{ "type": "Feature", "properties": { "Denominaca": "APARTMENT SUNSET SENSES" }, "geometry": { "type": "Point", "coordinates": [ -8.692583021987376, 41.191853436494888 ] } },
{ "type": "Feature", "properties": { "Denominaca": "Republica AB" }, "geometry": { "type": "Point", "coordinates": [ -8.686015263929646, 41.180085529089901 ] } },
{ "type": "Feature", "properties": { "Denominaca": "Matosinhos Center" }, "geometry": { "type": "Point", "coordinates": [ -8.688224224271487, 41.18199234926356 ] } },
{ "type": "Feature", "properties": { "Denominaca": "COBBLE STONE" }, "geometry": { "type": "Point", "coordinates": [ -8.691012290281733, 41.180590129067554 ] } },
{ "type": "Feature", "properties": { "Denominaca": "CASA DA LUNA" }, "geometry": { "type": "Point", "coordinates": [ -8.677399963960859, 41.181210005783477 ] } },
{ "type": "Feature", "properties": { "Denominaca": "185 Brito Capelo" }, "geometry": { "type": "Point", "coordinates": [ -8.693000026139364, 41.185579995102174 ] } },
{ "type": "Feature", "properties": { "Denominaca": "FACO Travels" }, "geometry": { "type": "Point", "coordinates": [ -8.684091358482004, 41.176843908574419 ] } },
{ "type": "Feature", "properties": { "Denominaca": "Leça Front Beach Luxury Apartment" }, "geometry": { "type": "Point", "coordinates": [ -8.709239964152996, 41.198089986186602 ] } },
{ "type": "Feature", "properties": { "Denominaca": "PORTO SERENO -GUEST HOUSE" }, "geometry": { "type": "Point", "coordinates": [ -8.698107766467903, 41.188803821847308 ] } },
{ "type": "Feature", "properties": { "Denominaca": "QUARTO ACONCHEGANTE" }, "geometry": { "type": "Point", "coordinates": [ -8.686685986664619, 41.180952385187496 ] } },
{ "type": "Feature", "properties": { "Denominaca": "SWEET HOME CR" }, "geometry": { "type": "Point", "coordinates": [ -8.688823545844652, 41.182302941742591 ] } },
{ "type": "Feature", "properties": { "Denominaca": "Quarto junto ao Mar" }, "geometry": { "type": "Point", "coordinates": [ -8.690285928662727, 41.179539881517236 ] } },
{ "type": "Feature", "properties": { "Denominaca": "Edificio Vencedor 2º Dtº" }, "geometry": { "type": "Point", "coordinates": [ -8.693380260178571, 41.186178284400583 ] } },
{ "type": "Feature", "properties": { "Denominaca": "BEACH APARTMENT" }, "geometry": { "type": "Point", "coordinates": [ -8.691460515240138, 41.179991652932564 ] } },
{ "type": "Feature", "properties": { "Denominaca": "Matosinhos Beach - by UniqueHosts" }, "geometry": { "type": "Point", "coordinates": [ -8.671244414803931, 41.181215152736364 ] } },
{ "type": "Feature", "properties": { "Denominaca": "Pucco Your Place" }, "geometry": { "type": "Point", "coordinates": [ -8.702720947400035, 41.190496523043258 ] } },
{ "type": "Feature", "properties": { "Denominaca": "FELIZ PARA SEMPRE" }, "geometry": { "type": "Point", "coordinates": [ -8.669505500232377, 41.177706000746134 ] } },
{ "type": "Feature", "properties": { "Denominaca": "Sea Stadium" }, "geometry": { "type": "Point", "coordinates": [ -8.661487134055797, 41.185864453560868 ] } },
{ "type": "Feature", "properties": { "Denominaca": "Alojamento D.ª Jucunda" }, "geometry": { "type": "Point", "coordinates": [ -8.640451514753368, 41.200311667844232 ] } },
{ "type": "Feature", "properties": { "Denominaca": "Edificio Vencedor, 3ºandar centro" }, "geometry": { "type": "Point", "coordinates": [ -8.693379978569801, 41.186169997325372 ] } },
{ "type": "Feature", "properties": { "Denominaca": "JOÃO BEACH HOUSE 2" }, "geometry": { "type": "Point", "coordinates": [ -8.703772345236706, 41.188667165694127 ] } },
{ "type": "Feature", "properties": { "Denominaca": "APARTAMENTO  PRAIA DOS BEIJINHOS" }, "geometry": { "type": "Point", "coordinates": [ -8.684580500191181, 41.19988200119942 ] } },
{ "type": "Feature", "properties": { "Denominaca": "Edificio Vencedor" }, "geometry": { "type": "Point", "coordinates": [ -8.693368612688129, 41.186173240133428 ] } },
{ "type": "Feature", "properties": { "Denominaca": "T2 Matosinhos" }, "geometry": { "type": "Point", "coordinates": [ -8.665214112331544, 41.181381019277168 ] } },
{ "type": "Feature", "properties": { "Denominaca": "Trégua Apartment" }, "geometry": { "type": "Point", "coordinates": [ -8.629130422581325, 41.181367358595352 ] } },
{ "type": "Feature", "properties": { "Denominaca": "Ocean House AL" }, "geometry": { "type": "Point", "coordinates": [ -8.714369531699113, 41.221834313811378 ] } },
{ "type": "Feature", "properties": { "Denominaca": "Hospedaria Praia Mar" }, "geometry": { "type": "Point", "coordinates": [ -8.689497344855711, 41.179889965661403 ] } },
{ "type": "Feature", "properties": { "Denominaca": "Classy Matosinhos Apartment, by UniqueHosts" }, "geometry": { "type": "Point", "coordinates": [ -8.68293145919133, 41.181550269962379 ] } },
{ "type": "Feature", "properties": { "Denominaca": "Apartamento Fonte Luz II" }, "geometry": { "type": "Point", "coordinates": [ -8.681939761415677, 41.179853956802631 ] } },
{ "type": "Feature", "properties": { "Denominaca": "Liiiving in Matosinhos | Seaside Delight Apartment (II)" }, "geometry": { "type": "Point", "coordinates": [ -8.686397468495322, 41.178414301285024 ] } },
{ "type": "Feature", "properties": { "Denominaca": "Matosinhos Sea Side" }, "geometry": { "type": "Point", "coordinates": [ -8.682907468034287, 41.175240027807391 ] } },
{ "type": "Feature", "properties": { "Denominaca": "Beautiful Porto" }, "geometry": { "type": "Point", "coordinates": [ -8.698196685186874, 41.189359244133357 ] } },
{ "type": "Feature", "properties": { "Denominaca": "Sea You Matosinhos" }, "geometry": { "type": "Point", "coordinates": [ -8.691820649072353, 41.181378779325478 ] } },
{ "type": "Feature", "properties": { "Denominaca": "DIANA MARIA MARTINS PALMEIRA" }, "geometry": { "type": "Point", "coordinates": [ -8.687911699169252, 41.18028347224616 ] } },
{ "type": "Feature", "properties": { "Denominaca": "Modern Leça" }, "geometry": { "type": "Point", "coordinates": [ -8.700659996054505, 41.195099993238209 ] } },
{ "type": "Feature", "properties": { "Denominaca": "LALINHA" }, "geometry": { "type": "Point", "coordinates": [ -8.632219055511705, 41.194956536043861 ] } },
{ "type": "Feature", "properties": { "Denominaca": "Classy apartment in the seaside area of Porto" }, "geometry": { "type": "Point", "coordinates": [ -8.692240039693097, 41.184920004547685 ] } },
{ "type": "Feature", "properties": { "Denominaca": "CITY PART & BEACH AP" }, "geometry": { "type": "Point", "coordinates": [ -8.666076078858426, 41.182202433461022 ] } },
{ "type": "Feature", "properties": { "Denominaca": "Johnny Cool" }, "geometry": { "type": "Point", "coordinates": [ -8.602939997427423, 41.18762999883355 ] } },
{ "type": "Feature", "properties": { "Denominaca": "André´s São João Porto Apt." }, "geometry": { "type": "Point", "coordinates": [ -8.597938364866343, 41.18774031082058 ] } },
{ "type": "Feature", "properties": { "Denominaca": "Bonsai Apartment V" }, "geometry": { "type": "Point", "coordinates": [ -8.689747759426879, 41.180463872666131 ] } },
{ "type": "Feature", "properties": { "Denominaca": "BlueHouse" }, "geometry": { "type": "Point", "coordinates": [ -8.706969976773594, 41.198210014793659 ] } },
{ "type": "Feature", "properties": { "Denominaca": "Casa da Praia" }, "geometry": { "type": "Point", "coordinates": [ -8.687982500475643, 41.173719000972667 ] } },
{ "type": "Feature", "properties": { "Denominaca": "ABC MOTEL FLAMINGO" }, "geometry": { "type": "Point", "coordinates": [ -8.694553276809131, 41.219351340901646 ] } },
{ "type": "Feature", "properties": { "Denominaca": "Algas Apartment" }, "geometry": { "type": "Point", "coordinates": [ -8.721128353015979, 41.25393392630675 ] } },
{ "type": "Feature", "properties": { "Denominaca": "Casa Laranja" }, "geometry": { "type": "Point", "coordinates": [ -8.694910010582015, 41.183640003695075 ] } },
{ "type": "Feature", "properties": { "Denominaca": "A Minha Casinha" }, "geometry": { "type": "Point", "coordinates": [ -8.682506371537823, 41.180475784460015 ] } },
{ "type": "Feature", "properties": { "Denominaca": "IN THE SEA NEAR THE CITY" }, "geometry": { "type": "Point", "coordinates": [ -8.691650022898658, 41.194268991354129 ] } },
{ "type": "Feature", "properties": { "Denominaca": "Oporto Beach & Surf" }, "geometry": { "type": "Point", "coordinates": [ -8.689750027724353, 41.176009999582774 ] } },
{ "type": "Feature", "properties": { "Denominaca": "SAND PLACE" }, "geometry": { "type": "Point", "coordinates": [ -8.713632748290893, 41.223987980959677 ] } },
{ "type": "Feature", "properties": { "Denominaca": "Apart Sol Nascente" }, "geometry": { "type": "Point", "coordinates": [ -8.700190022383365, 41.194730015971579 ] } },
{ "type": "Feature", "properties": { "Denominaca": "CASA OLINDA" }, "geometry": { "type": "Point", "coordinates": [ -8.613025711628595, 41.186012947256188 ] } },
{ "type": "Feature", "properties": { "Denominaca": "Republica S" }, "geometry": { "type": "Point", "coordinates": [ -8.686023309779115, 41.180115992520179 ] } },
{ "type": "Feature", "properties": { "Denominaca": "Local inn III" }, "geometry": { "type": "Point", "coordinates": [ -8.676028948311426, 41.17965320004113 ] } },
{ "type": "Feature", "properties": { "Denominaca": "OdMary" }, "geometry": { "type": "Point", "coordinates": [ -8.637346730005884, 41.184263476639543 ] } },
{ "type": "Feature", "properties": { "Denominaca": "Nice Cozy Studio Circunvalação - by UniqueHosts" }, "geometry": { "type": "Point", "coordinates": [ -8.63733999869121, 41.184280003787912 ] } },
{ "type": "Feature", "properties": { "Denominaca": "Apartamento" }, "geometry": { "type": "Point", "coordinates": [ -8.682564499608326, 41.178912000834103 ] } },
{ "type": "Feature", "properties": { "Denominaca": "CASA DO DAVID" }, "geometry": { "type": "Point", "coordinates": [ -8.68755662267416, 41.179478868055142 ] } },
{ "type": "Feature", "properties": { "Denominaca": "Casa da Praia" }, "geometry": { "type": "Point", "coordinates": [ -8.67087557536923, 41.181189642900414 ] } },
{ "type": "Feature", "properties": { "Denominaca": "PORTO LOVELISE ROOMS" }, "geometry": { "type": "Point", "coordinates": [ -8.657186556423829, 41.183438794985278 ] } },
{ "type": "Feature", "properties": { "Denominaca": "MyTrip Porto Villas" }, "geometry": { "type": "Point", "coordinates": [ -8.688710000708811, 41.181024996876573 ] } },
{ "type": "Feature", "properties": { "Denominaca": "GH-Leça Apartments" }, "geometry": { "type": "Point", "coordinates": [ -8.69764993929312, 41.194199243303665 ] } },
{ "type": "Feature", "properties": { "Denominaca": "BETTY SASHA" }, "geometry": { "type": "Point", "coordinates": [ -8.691340930706721, 41.180873636947361 ] } },
{ "type": "Feature", "properties": { "Denominaca": "Oporto Beach Apartment" }, "geometry": { "type": "Point", "coordinates": [ -8.690101346930366, 41.178827095503465 ] } },
{ "type": "Feature", "properties": { "Denominaca": "avenida da republica 349" }, "geometry": { "type": "Point", "coordinates": [ -8.689260020673107, 41.180249985318447 ] } },
{ "type": "Feature", "properties": { "Denominaca": "Warm Feeling AP" }, "geometry": { "type": "Point", "coordinates": [ -8.61107655240135, 41.195237030408322 ] } },
{ "type": "Feature", "properties": { "Denominaca": "AL B" }, "geometry": { "type": "Point", "coordinates": [ -8.691572318227017, 41.186567599008612 ] } },
{ "type": "Feature", "properties": { "Denominaca": "Casa Azul" }, "geometry": { "type": "Point", "coordinates": [ -8.649914395075172, 41.188823646888359 ] } },
{ "type": "Feature", "properties": { "Denominaca": "PORTO BEACH HOUSE" }, "geometry": { "type": "Point", "coordinates": [ -8.687372537209798, 41.180309413604704 ] } },
{ "type": "Feature", "properties": { "Denominaca": "CASA DO SURF" }, "geometry": { "type": "Point", "coordinates": [ -8.670927043670432, 41.18128789158748 ] } }
]
}]
